id,soldDate,latitude,longitude,floorSize,beds,bathrooms,url,address,city,state,zipCode,price
zpid_102670696,5/19/2023,25.936588,-80.12078,1201,2,2,https://www.zillow.com/homedetails/17315-Collins-Ave-1902-Sunny-Isles-Beach-FL-33160/102670696_zpid/,17315 Collins Ave #1902,Sunny Isles Beach,FL,33160,820000
zpid_103011549,5/18/2023,26.033073,-80.32637,6587,5,5,https://www.zillow.com/homedetails/13400-Mustang-Trl-Fort-Lauderdale-FL-33330/103011549_zpid/,13400 Mustang Trl,Fort Lauderdale,FL,33330,5950000
zpid_103011848,6/6/2023,26.238155,-80.15003,1711,3,3,https://www.zillow.com/homedetails/1940-NW-7th-St-Pompano-Beach-FL-33069/103011848_zpid/,1940 NW 7th St,Pompano Beach,FL,33069,500000
zpid_103435370,5/18/2023,25.849325,-80.157745,1086,2,2,https://www.zillow.com/homedetails/7928-East-Dr-APT-1101-North-Bay-Village-FL-33141/103435370_zpid/,7928 East Dr APT 1101,North Bay Village,FL,33141,533000
zpid_103443587,6/6/2023,25.760443,-80.191925,729,1,1,https://www.zillow.com/homedetails/1395-Brickell-Ave-2711-Miami-FL-33131/103443587_zpid/,1395 Brickell Ave #2711,Miami,FL,33131,550000
zpid_110556935,5/31/2023,25.998812,-80.34402,1924,3,3,https://www.zillow.com/homedetails/1125-SW-147th-Ter-Pembroke-Pines-FL-33027/110556935_zpid/,1125 SW 147th Ter,Pembroke Pines,FL,33027,520000
zpid_113379598,6/9/2023,25.78521,-80.2259,887,2,2,https://www.zillow.com/homedetails/1871-NW-South-River-Dr-UNIT-1507-Miami-FL-33125/113379598_zpid/,1871 NW South River Dr UNIT 1507,Miami,FL,33125,400000
zpid_113379629,5/22/2023,25.922817,-80.12174,1935,3,3,https://www.zillow.com/homedetails/15811-Collins-Ave-APT-503-Sunny-Isles-Beach-FL-33160/113379629_zpid/,15811 Collins Ave APT 503,Sunny Isles Beach,FL,33160,1450000
zpid_117471712,5/18/2023,26.04337,-80.2546,1470,2,2,https://www.zillow.com/homedetails/4231-Cascada-Cir-Cooper-City-FL-33024/117471712_zpid/,4231 Cascada Cir,Cooper City,FL,33024,489000
zpid_117471771,6/9/2023,26.02977,-80.25433,3076,4,3,https://www.zillow.com/homedetails/2655-NW-83rd-Way-Cooper-City-FL-33024/117471771_zpid/,2655 NW 83rd Way,Cooper City,FL,33024,1370000
zpid_117471807,5/19/2023,26.035072,-80.25334,3812,5,5,https://www.zillow.com/homedetails/2841-NW-82nd-Way-Cooper-City-FL-33024/117471807_zpid/,2841 NW 82nd Way,Cooper City,FL,33024,1250000
zpid_118270784,5/26/2023,26.328707,-80.26748,4835,5,5,https://www.zillow.com/homedetails/7936-Canopy-Ter-Parkland-FL-33076/118270784_zpid/,7936 Canopy Ter,Parkland,FL,33076,2320000
zpid_118272267,5/24/2023,26.035864,-80.25047,1458,3,3,https://www.zillow.com/homedetails/2937-Cascada-Isle-Way-Cooper-City-FL-33024/118272267_zpid/,2937 Cascada Isle Way,Cooper City,FL,33024,595000
zpid_118914209,5/17/2023,25.698904,-80.4567,1754,3,3,https://www.zillow.com/homedetails/7155-SW-163rd-Ave-Miami-FL-33193/118914209_zpid/,7155 SW 163rd Ave,Miami,FL,33193,510000
zpid_118914460,5/16/2023,25.779745,-80.36049,2391,4,4,https://www.zillow.com/homedetails/10040-NW-10th-St-Miami-FL-33172/118914460_zpid/,10040 NW 10th St,Miami,FL,33172,850000
zpid_118915437,5/19/2023,25.888395,-80.122894,3128,3,3,https://www.zillow.com/homedetails/9701-Collins-Ave-UNIT-1902S-Bal-Harbour-FL-33154/118915437_zpid/,9701 Collins Ave UNIT 1902S,Bal Harbour,FL,33154,7700000
zpid_119313780,5/31/2023,26.034464,-80.37525,2076,3,3,https://www.zillow.com/homedetails/6800-SW-172nd-Ave-Fort-Lauderdale-FL-33331/119313780_zpid/,6800 SW 172nd Ave,Fort Lauderdale,FL,33331,4300000
zpid_121230955,6/8/2023,25.680573,-80.4709,1608,3,3,https://www.zillow.com/homedetails/9230-SW-170th-Pl-Palmetto-Bay-FL-33196/121230955_zpid/,9230 SW 170th Pl,Palmetto Bay,FL,33196,450000
zpid_121339791,6/7/2023,25.986078,-80.12257,1037,2,2,https://www.zillow.com/homedetails/2602-E-Hallandale-Beach-Blvd-R1808-Hallandale-FL-33009/121339791_zpid/,2602 E Hallandale Beach Blvd #R1808,Hallandale,FL,33009,510000
zpid_121340603,5/23/2023,25.986078,-80.12257,1028,2,2,https://www.zillow.com/homedetails/2602-E-Hallandale-Beach-Blvd-R610-Hallandale-FL-33009/121340603_zpid/,2602 E Hallandale Beach Blvd #R610,Hallandale,FL,33009,450000
zpid_121341628,5/31/2023,25.986078,-80.12257,1020,2,2,https://www.zillow.com/homedetails/2602-E-Hallandale-Beach-Blvd-R2409-Hallandale-FL-33009/121341628_zpid/,2602 E Hallandale Beach Blvd #R2409,Hallandale,FL,33009,545000
zpid_121343822,5/30/2023,25.895836,-80.193565,644,1,1,https://www.zillow.com/homedetails/13101-Memorial-Hwy-APT-209-North-Miami-FL-33161/121343822_zpid/,13101 Memorial Hwy APT 209,North Miami,FL,33161,135000
zpid_121345900,6/9/2023,25.760386,-80.190346,1308,3,3,https://www.zillow.com/homedetails/1300-Brickell-Bay-Dr-APT-3002-Miami-FL-33131/121345900_zpid/,1300 Brickell Bay Dr APT 3002,Miami,FL,33131,1060000
zpid_121348031,5/30/2023,25.803843,-80.18741,1311,2,2,https://www.zillow.com/homedetails/460-NE-28th-St-APT-2101-Miami-FL-33137/121348031_zpid/,460 NE 28th St APT 2101,Miami,FL,33137,950000
zpid_121673130,5/31/2023,25.852795,-80.36186,2462,3,3,https://www.zillow.com/homedetails/10072-NW-87th-Ter-Doral-FL-33178/121673130_zpid/,10072 NW 87th Ter,Doral,FL,33178,7750000
zpid_121674733,6/5/2023,25.941092,-80.136116,2608,3,3,https://www.zillow.com/homedetails/4100-Island-Blvd-UNIT-1104-Aventura-FL-33160/121674733_zpid/,4100 Island Blvd UNIT 1104,Aventura,FL,33160,1800000
zpid_121929443,6/5/2023,25.986687,-80.118675,1136,2,2,https://www.zillow.com/homedetails/4111-S-Ocean-Dr-2303-Hollywood-FL-33019/121929443_zpid/,4111 S Ocean Dr #2303,Hollywood,FL,33019,830000
zpid_121929620,5/31/2023,26.034922,-80.252235,1244,2,2,https://www.zillow.com/homedetails/2907-Tortola-Way-Cooper-City-FL-33024/121929620_zpid/,2907 Tortola Way,Cooper City,FL,33024,490000
zpid_122015432,5/18/2023,25.7876,-80.136795,414,1,1,https://www.zillow.com/homedetails/801-15th-St-APT-210-Miami-Beach-FL-33139/122015432_zpid/,801 15th St APT 210,Miami Beach,FL,33139,228000
zpid_122015743,6/8/2023,25.900723,-80.35437,1920,3,3,https://www.zillow.com/homedetails/3518-W-86th-Ter-Hialeah-FL-33018/122015743_zpid/,3518 W 86th Ter,Hialeah,FL,33018,570000
zpid_122019032,6/5/2023,25.949259,-80.13663,2275,4,4,https://www.zillow.com/homedetails/3250-NE-188th-St-APT-404-Aventura-FL-33180/122019032_zpid/,3250 NE 188th St APT 404,Aventura,FL,33180,1450000
zpid_124751906,5/10/2023,25.831276,-80.36887,2152,3,3,https://www.zillow.com/homedetails/10565-NW-63rd-Ter-Doral-FL-33178/124751906_zpid/,10565 NW 63rd Ter,Doral,FL,33178,755000
zpid_126047412,5/19/2023,26.132364,-80.12852,1777,4,4,https://www.zillow.com/homedetails/724-NE-15th-Ave-2-Fort-Lauderdale-FL-33304/126047412_zpid/,724 NE 15th Ave #2,Fort Lauderdale,FL,33304,875000
zpid_126283528,5/22/2023,26.1077,-80.12676,2067,3,3,https://www.zillow.com/homedetails/1532-SE-12th-St-301-Fort-Lauderdale-FL-33316/126283528_zpid/,1532 SE 12th St #301,Fort Lauderdale,FL,33316,1800000
zpid_155774100,5/30/2023,,,2381,5,5,https://www.zillow.com/homedetails/Miami-FL-33135/155774100_zpid/,(undisclosed Address),Miami,FL,33135,675000
zpid_155797918,5/11/2023,25.731852,-80.25123,1225,4,4,https://www.zillow.com/homedetails/3180-Carter-St-Miami-FL-33133/155797918_zpid/,3180 Carter St,Miami,FL,33133,750000
zpid_155876541,6/6/2023,25.778513,-80.135864,640,1,1,https://www.zillow.com/homedetails/801-Meridian-Ave-APT-2D-Miami-Beach-FL-33139/155876541_zpid/,801 Meridian Ave APT 2D,Miami Beach,FL,33139,262000
zpid_156013040,5/25/2023,25.866085,-80.1981,1732,3,3,https://www.zillow.com/homedetails/19-NW-99th-St-Miami-Shores-FL-33150/156013040_zpid/,19 NW 99th St,Miami Shores,FL,33150,765000
zpid_156052522,5/19/2023,25.892748,-80.35942,2436,4,4,https://www.zillow.com/homedetails/9865-NW-131st-St-Hialeah-Gardens-FL-33018/156052522_zpid/,9865 NW 131st St,Hialeah Gardens,FL,33018,1700000
zpid_156139159,5/22/2023,25.880419,-80.19065,2111,4,4,https://www.zillow.com/homedetails/365-NE-115th-St-Miami-FL-33161/156139159_zpid/,365 NE 115th St,Miami,FL,33161,875000
zpid_156162609,6/9/2023,25.815308,-80.245865,1377,4,3,https://www.zillow.com/homedetails/3069-NW-44th-St-Miami-FL-33142/156162609_zpid/,3069 NW 44th St,Miami,FL,33142,499990
zpid_156195667,5/11/2023,25.744081,-80.316956,1212,2,2,https://www.zillow.com/homedetails/7508-S-Waterway-Dr-Miami-FL-33155/156195667_zpid/,7508 S Waterway Dr,Miami,FL,33155,550000
zpid_156494101,5/17/2023,25.81554,-80.36155,1898,3,3,https://www.zillow.com/homedetails/10235-NW-46th-St-Doral-FL-33178/156494101_zpid/,10235 NW 46th St,Doral,FL,33178,570000
zpid_161770176,5/22/2023,26.119732,-80.372025,500,1,1,https://www.zillow.com/homedetails/16482-Botaniko-Dr-S-Fort-Lauderdale-FL-33326/161770176_zpid/,16482 Botaniko Dr S,Fort Lauderdale,FL,33326,2650000
zpid_161771506,6/1/2023,26.177504,-80.132904,1317,3,3,https://www.zillow.com/homedetails/4222-N-Dixie-Hwy-UNIT-77-Oakland-Park-FL-33334/161771506_zpid/,4222 N Dixie Hwy UNIT 77,Oakland Park,FL,33334,510000
zpid_162031665,5/31/2023,25.841995,-80.35502,3113,5,5,https://www.zillow.com/homedetails/9723-NW-75th-St-Doral-FL-33178/162031665_zpid/,9723 NW 75th St,Doral,FL,33178,1070000
zpid_162031802,5/30/2023,25.765038,-80.19466,1096,2,2,https://www.zillow.com/homedetails/999-SW-1st-Ave-APT-1707-Miami-FL-33130/162031802_zpid/,999 SW 1st Ave APT 1707,Miami,FL,33130,600000
zpid_162032032,5/30/2023,25.841385,-80.35849,3690,5,5,https://www.zillow.com/homedetails/7448-NW-99th-Ave-Doral-FL-33178/162032032_zpid/,7448 NW 99th Ave,Doral,FL,33178,1300000
zpid_193972122,5/22/2023,25.934944,-80.149376,2158,3,3,https://www.zillow.com/homedetails/17301-Biscayne-Blvd-APT-506-Aventura-FL-33160/193972122_zpid/,17301 Biscayne Blvd APT 506,Aventura,FL,33160,1250000
zpid_2057337936,6/1/2023,26.054861,-80.15442,1876,4,4,https://www.zillow.com/homedetails/154-NW-14th-Way-Dania-FL-33004/2057337936_zpid/,154 NW 14th Way,Dania,FL,33004,479500
zpid_2057457834,6/8/2023,,,1882,2,2,https://www.zillow.com/homedetails/3-Grove-Isle-Dr-CPH04-Miami-FL-33133/2057457834_zpid/,3 Grove Isle Dr #CPH04,Miami,FL,33133,875000
zpid_2057655995,6/10/2023,26.118145,-80.371925,1110,2,2,https://www.zillow.com/homedetails/255-Mallory-Ct-255-Fort-Lauderdale-FL-33326/2057655995_zpid/,255 Mallory Ct #255,Fort Lauderdale,FL,33326,380000
zpid_2057664600,6/5/2023,,,638,1,1,https://www.zillow.com/homedetails/516-NW-43rd-Pl-516-Pompano-Beach-FL-33064/2057664600_zpid/,516 NW 43rd Pl #516,Pompano Beach,FL,33064,115000
zpid_2057681376,5/31/2023,,,1949,5,5,https://www.zillow.com/homedetails/1414-1416-N-59th-Ter-Hollywood-FL-33021/2057681376_zpid/,1414-1416 N 59th Ter,Hollywood,FL,33021,502500
zpid_2057727707,5/24/2023,,,2491,4,4,https://www.zillow.com/homedetails/1209-SE-1st-St-1209-Fort-Lauderdale-FL-33301/2057727707_zpid/,1209 SE 1st St #1209,Fort Lauderdale,FL,33301,1450000
zpid_2057735818,6/9/2023,,,1654,3,3,https://www.zillow.com/homedetails/11867-SW-13th-Ct-56-Fort-Lauderdale-FL-33325/2057735818_zpid/,11867 SW 13th Ct #56,Fort Lauderdale,FL,33325,420000
zpid_2057743479,6/5/2023,,,2174,4,4,https://www.zillow.com/homedetails/2627-Lincoln-St-Hollywood-FL-33020/2057743479_zpid/,2627 Lincoln St,Hollywood,FL,33020,780000
zpid_2057746321,6/9/2023,26.098602,-80.18171,2103,4,4,https://www.zillow.com/homedetails/2851-SW-18th-St-Fort-Lauderdale-FL-33312/2057746321_zpid/,2851 SW 18th St,Fort Lauderdale,FL,33312,499000
zpid_2057779990,5/22/2023,26.016464,-80.15662,2430,5,5,https://www.zillow.com/homedetails/2449-Pierce-St-Hollywood-FL-33020/2057779990_zpid/,2449 Pierce St,Hollywood,FL,33020,630000
zpid_2057848260,5/31/2023,,,1644,3,3,https://www.zillow.com/homedetails/10425-W-32nd-Ln-X-Hialeah-FL-33018/2057848260_zpid/,10425 W 32nd Ln #X,Hialeah,FL,33018,512000
zpid_2057877291,6/7/2023,,,1694,3,3,https://www.zillow.com/homedetails/7949-NW-20th-St-7949-Hollywood-FL-33024/2057877291_zpid/,7949 NW 20th St #7949,Hollywood,FL,33024,460000
zpid_2057922388,6/8/2023,,,1580,2,2,https://www.zillow.com/homedetails/10234-Lombardy-Dr-10234-Fort-Lauderdale-FL-33321/2057922388_zpid/,10234 Lombardy Dr #10234,Fort Lauderdale,FL,33321,315000
zpid_2057930211,5/30/2023,,,1600,2,2,https://www.zillow.com/homedetails/7354-Miami-Hialeah-FL-33014/2057930211_zpid/,7354 Miami,Hialeah,FL,33014,525000
zpid_2057945208,5/23/2023,,,2293,4,4,https://www.zillow.com/homedetails/6142-6144-Arthur-St-Hollywood-FL-33024/2057945208_zpid/,6142-6144 Arthur St,Hollywood,FL,33024,550000
zpid_2057960030,6/6/2023,,,1090,2,2,https://www.zillow.com/homedetails/810-SE-7th-St-A303-Deerfield-Beach-FL-33441/2057960030_zpid/,810 SE 7th St #A303,Deerfield Beach,FL,33441,148000
zpid_2057965480,6/7/2023,,,2160,4,4,https://www.zillow.com/homedetails/4691-4691A-SW-43rd-Ter-Fort-Lauderdale-FL-33314/2057965480_zpid/,4691-4691A SW 43rd Ter,Fort Lauderdale,FL,33314,470000
zpid_2057970598,6/5/2023,,,1238,2,2,https://www.zillow.com/homedetails/7278-S-Devon-Dr-207-2778-Fort-Lauderdale-FL-33321/2057970598_zpid/,7278 S Devon Dr #207/2778,Fort Lauderdale,FL,33321,220000
zpid_2057975091,6/5/2023,,,1386,3,3,https://www.zillow.com/homedetails/4752-SW-14th-Ct-4752-Deerfield-Beach-FL-33442/2057975091_zpid/,4752 SW 14th Ct #4752,Deerfield Beach,FL,33442,405000
zpid_2057985835,5/31/2023,,,708,1,1,https://www.zillow.com/homedetails/522-Tilford-522-X-Deerfield-Beach-FL-33442/2057985835_zpid/,522 Tilford #522-X,Deerfield Beach,FL,33442,89000
zpid_2058027513,5/31/2023,,,1336,3,3,https://www.zillow.com/homedetails/5625-NW-125th-Ave-5625-Pompano-Beach-FL-33076/2058027513_zpid/,5625 NW 125th Ave #5625,Pompano Beach,FL,33076,515000
zpid_2058030136,5/22/2023,,,1438,3,3,https://www.zillow.com/homedetails/1571-Orion-Ln-1571-Fort-Lauderdale-FL-33327/2058030136_zpid/,1571 Orion Ln #1571,Fort Lauderdale,FL,33327,610000
zpid_2058036927,5/18/2023,,,1372,2,2,https://www.zillow.com/homedetails/709-NW-99th-Cir-709-Fort-Lauderdale-FL-33324/2058036927_zpid/,709 NW 99th Cir #709,Fort Lauderdale,FL,33324,410000
zpid_2058071476,5/30/2023,26.218313,-80.27822,1080,2,2,https://www.zillow.com/homedetails/9537-Weldon-Cir-APT-206-Fort-Lauderdale-FL-33321/2058071476_zpid/,9537 Weldon Cir APT 206,Fort Lauderdale,FL,33321,187000
zpid_2058082327,5/23/2023,26.035397,-80.191376,1314,2,2,https://www.zillow.com/homedetails/2802-N-46th-Ave-APT-B423-Hollywood-FL-33021/2058082327_zpid/,2802 N 46th Ave APT B423,Hollywood,FL,33021,289000
zpid_2058096054,5/22/2023,,,1445,3,3,https://www.zillow.com/homedetails/7205-Jacaranda-Ln-7205-Hialeah-FL-33014/2058096054_zpid/,7205 Jacaranda Ln #7205,Hialeah,FL,33014,550000
zpid_2058104633,5/24/2023,26.053608,-80.13903,1150,4,4,https://www.zillow.com/homedetails/245-NE-1st-Ter-Dania-FL-33004/2058104633_zpid/,245 NE 1st Ter,Dania,FL,33004,506000
zpid_2058105516,5/31/2023,,,1222,2,2,https://www.zillow.com/homedetails/13661-SW-101st-Ln-13661-Miami-FL-33186/2058105516_zpid/,13661 SW 101st Ln #13661,Miami,FL,33186,447000
zpid_2058125991,6/9/2023,,,755,1,1,https://www.zillow.com/homedetails/1625-Kennedy-Cswy-804-Miami-Beach-FL-33141/2058125991_zpid/,1625 Kennedy Cswy #804,Miami Beach,FL,33141,400000
zpid_2058133561,5/11/2023,,,1336,3,3,https://www.zillow.com/homedetails/7543-SW-109th-Ave-7543-Miami-FL-33173/2058133561_zpid/,7543 SW 109th Ave #7543,Miami,FL,33173,460000
zpid_2058205179,5/19/2023,,,1480,2,2,https://www.zillow.com/homedetails/1570-Zenith-Way-1570-Fort-Lauderdale-FL-33327/2058205179_zpid/,1570 Zenith Way #1570,Fort Lauderdale,FL,33327,512000
zpid_2058210491,6/12/2023,,,1781,4,4,https://www.zillow.com/homedetails/3294-W-100th-Ter-3294-Hialeah-FL-33018/2058210491_zpid/,3294 W 100th Ter #3294,Hialeah,FL,33018,547000
zpid_2058210825,5/24/2023,,,1924,3,3,https://www.zillow.com/homedetails/3339-Lakeside-Dr-3339-Fort-Lauderdale-FL-33328/2058210825_zpid/,3339 Lakeside Dr #3339,Fort Lauderdale,FL,33328,530000
zpid_2058214317,5/22/2023,,,1517,3,3,https://www.zillow.com/homedetails/17946-SW-10th-Ln-17946-Hollywood-FL-33029/2058214317_zpid/,17946 SW 10th Ln #17946,Hollywood,FL,33029,450000
zpid_2058219220,6/2/2023,26.035397,-80.191376,1314,2,2,https://www.zillow.com/homedetails/2808-N-46th-Ave-APT-E553-Hollywood-FL-33021/2058219220_zpid/,2808 N 46th Ave APT E553,Hollywood,FL,33021,279900
zpid_2058270834,5/22/2023,,,1671,3,3,https://www.zillow.com/homedetails/415-NE-194th-Ln-415-Miami-FL-33179/2058270834_zpid/,415 NE 194th Ln #415,Miami,FL,33179,525000
zpid_2058272509,6/1/2023,,,2303,3,3,https://www.zillow.com/homedetails/6001-N-Ocean-Dr-APT-1005-S-Hollywood-FL-33019/2058272509_zpid/,6001 N Ocean Dr APT 1005-S,Hollywood,FL,33019,1600000
zpid_2058284648,5/31/2023,,,1050,2,2,https://www.zillow.com/homedetails/2304-Congressional-Way-2304-Deerfield-Beach-FL-33442/2058284648_zpid/,2304 Congressional Way #2304,Deerfield Beach,FL,33442,305000
zpid_2058306567,5/31/2023,,,1100,2,2,https://www.zillow.com/homedetails/6800-W-Royal-Palm-Blvd-212F-Pompano-Beach-FL-33063/2058306567_zpid/,6800 W Royal Palm Blvd #212F,Pompano Beach,FL,33063,147000
zpid_2058326858,5/22/2023,,,1961,3,3,https://www.zillow.com/homedetails/9120-NW-183rd-St-9120-Hialeah-FL-33018/2058326858_zpid/,9120 NW 183rd St #9120,Hialeah,FL,33018,570000
zpid_2058339321,5/31/2023,,,864,2,2,https://www.zillow.com/homedetails/4909-SW-135th-Ct-4909-Miami-FL-33175/2058339321_zpid/,4909 SW 135th Ct #4909,Miami,FL,33175,390000
zpid_2058417980,5/31/2023,,,1300,2,2,https://www.zillow.com/homedetails/202-Lincoln-Ct-202-Deerfield-Beach-FL-33442/2058417980_zpid/,202 Lincoln Ct #202,Deerfield Beach,FL,33442,268000
zpid_2058448531,6/8/2023,,,1145,2,2,https://www.zillow.com/homedetails/13549-SW-64th-Ln-72-Miami-FL-33183/2058448531_zpid/,13549 SW 64th Ln #72,Miami,FL,33183,467500
zpid_2058449373,6/8/2023,,,585,1,1,https://www.zillow.com/homedetails/54-Lyndhurst-54-C-Deerfield-Beach-FL-33442/2058449373_zpid/,54 Lyndhurst #54-C,Deerfield Beach,FL,33442,129500
zpid_2058733528,5/22/2023,26.072563,-80.39068,2829,4,4,https://www.zillow.com/homedetails/3820-Oak-Ridge-Cir-Fort-Lauderdale-FL-33331/2058733528_zpid/,3820 Oak Ridge Cir,Fort Lauderdale,FL,33331,945000
zpid_2058808492,6/1/2023,,,1034,2,2,https://www.zillow.com/homedetails/8134-NW-17th-Mnr-8134-Fort-Lauderdale-FL-33322/2058808492_zpid/,8134 NW 17th Mnr #8134,Fort Lauderdale,FL,33322,315000
zpid_2058922370,5/19/2023,25.748419,-80.30056,1772,4,4,https://www.zillow.com/homedetails/6445-Coral-Way-Miami-FL-33155/2058922370_zpid/,6445 Coral Way,Miami,FL,33155,610000
zpid_2058934343,5/24/2023,26.12172,-80.13075,2491,4,4,https://www.zillow.com/homedetails/1211-SE-1st-St-Fort-Lauderdale-FL-33301/2058934343_zpid/,1211 SE 1st St,Fort Lauderdale,FL,33301,1450000
zpid_2058942948,6/1/2023,25.965694,-80.1965,1586,2,2,https://www.zillow.com/homedetails/20850-San-Simeon-Way-APT-106-Miami-FL-33179/2058942948_zpid/,20850 San Simeon Way APT 106,Miami,FL,33179,220000
zpid_2059004235,5/22/2023,,,980,2,2,https://www.zillow.com/homedetails/7345-W-16th-Ave-7345-Hialeah-FL-33014/2059004235_zpid/,7345 W 16th Ave #7345,Hialeah,FL,33014,350000
zpid_2059017817,5/10/2023,25.94266,-80.14828,1565,2,2,https://www.zillow.com/homedetails/18061-Biscayne-Blvd-APT-1204-North-Miami-Beach-FL-33160/2059017817_zpid/,18061 Biscayne Blvd APT 1204,North Miami Beach,FL,33160,300000
zpid_2059151862,6/1/2023,25.821886,-80.35193,3244,5,5,https://www.zillow.com/homedetails/9460-NW-54th-Doral-Ter-Miami-FL-33178/2059151862_zpid/,9460 NW 54th Doral Ter,Miami,FL,33178,1450000
zpid_2059248963,6/1/2023,,,1149,3,3,https://www.zillow.com/homedetails/19315-NW-53rd-Ct-19315-Opa-Locka-FL-33055/2059248963_zpid/,19315 NW 53rd Ct #19315,Opa Locka,FL,33055,365000
zpid_2059260352,6/9/2023,,,3134,4,4,https://www.zillow.com/homedetails/515-Valencia-Ave-903-Miami-FL-33134/2059260352_zpid/,515 Valencia Ave #903,Miami,FL,33134,3700000
zpid_2059300697,5/31/2023,,,738,1,1,https://www.zillow.com/homedetails/1062-Harwood-E-1062-Deerfield-Beach-FL-33442/2059300697_zpid/,1062 Harwood E #1062,Deerfield Beach,FL,33442,105000
zpid_2059936971,5/10/2023,,,1640,3,3,https://www.zillow.com/homedetails/13510-21-Street-Ct-Miami-FL-33181/2059936971_zpid/,13510 21 Street Ct,Miami,FL,33181,515000
zpid_2059986956,6/8/2023,25.688623,-80.41336,1040,3,3,https://www.zillow.com/homedetails/8420-SW-133rd-Avenue-Rd-APT-123-Miami-FL-33183/2059986956_zpid/,8420 SW 133rd Avenue Rd APT 123,Miami,FL,33183,242500
zpid_2060216169,6/1/2023,,,1028,2,2,https://www.zillow.com/homedetails/2602-E-Hallandale-Beach-Blvd-2506-Hallandale-FL-33009/2060216169_zpid/,2602 E Hallandale Beach Blvd #2506,Hallandale,FL,33009,530000
zpid_2060260472,5/23/2023,25.97246,-80.13353,1505,3,3,https://www.zillow.com/homedetails/21220-Harbor-Way-APT-226-Miami-FL-33180/2060260472_zpid/,21220 Harbor Way APT 226,Miami,FL,33180,700000
zpid_2060278608,5/25/2023,,,2168,3,3,https://www.zillow.com/homedetails/4461-Waterside-Dr-LOT-205-Fort-Lauderdale-FL-33312/2060278608_zpid/,4461 Waterside Dr LOT 205,Fort Lauderdale,FL,33312,793485
zpid_2060502732,5/15/2023,,,2554,3,3,https://www.zillow.com/homedetails/809-SW-10th-St-Fort-Lauderdale-FL-33315/2060502732_zpid/,809 SW 10th St,Fort Lauderdale,FL,33315,975000
zpid_2060532360,6/1/2023,,,2390,2,2,https://www.zillow.com/homedetails/16132-Emerald-Estates-Dr-15-Fort-Lauderdale-FL-33331/2060532360_zpid/,16132 Emerald Estates Dr #15,Fort Lauderdale,FL,33331,775000
zpid_2060878805,6/5/2023,,,1565,2,2,https://www.zillow.com/homedetails/18061-N-Biscayne-Blvd-1004-North-Miami-Beach-FL-33160/2060878805_zpid/,18061 N Biscayne Blvd #1004,North Miami Beach,FL,33160,320000
zpid_2061089726,5/9/2023,,,1083,2,2,https://www.zillow.com/homedetails/13921-SW-58th-Ter-13921-Miami-FL-33183/2061089726_zpid/,13921 SW 58th Ter #13921,Miami,FL,33183,415000
zpid_2061236195,5/31/2023,,,1000,2,2,https://www.zillow.com/homedetails/3069-Lyndhurst-N-N-Deerfield-Beach-FL-33442/2061236195_zpid/,3069 Lyndhurst N #N,Deerfield Beach,FL,33442,160000
zpid_2061677543,5/24/2023,,,1110,2,2,https://www.zillow.com/homedetails/167-SW-96th-Ter-167-Fort-Lauderdale-FL-33324/2061677543_zpid/,167 SW 96th Ter #167,Fort Lauderdale,FL,33324,300000
zpid_2061680524,5/25/2023,,,850,2,2,https://www.zillow.com/homedetails/8881-N-Sunrise-Lakes-Blvd-201-Fort-Lauderdale-FL-33322/2061680524_zpid/,8881 N Sunrise Lakes Blvd #201,Fort Lauderdale,FL,33322,135000
zpid_2061874514,5/23/2023,,,1830,4,4,https://www.zillow.com/homedetails/352-SW-2nd-Pl-Pompano-Beach-FL-33060/2061874514_zpid/,352 SW 2nd Pl,Pompano Beach,FL,33060,350750
zpid_2062052015,5/19/2023,26.055683,-80.14285,1550,3,3,https://www.zillow.com/homedetails/146-NE-1st-Ave-Dania-FL-33004/2062052015_zpid/,146 NE 1st Ave,Dania,FL,33004,577500
zpid_2062154564,5/19/2023,,,1322,3,3,https://www.zillow.com/homedetails/10300-SW-66th-St-101-Miami-FL-33178/2062154564_zpid/,10300 SW 66th St #101,Miami,FL,33178,530000
zpid_2062306939,6/5/2023,,,1693,3,3,https://www.zillow.com/homedetails/4111-S-Ocean-Dr-UPH7-UPH-Hollywood-FL-33019/2062306939_zpid/,4111 S Ocean Dr #UPH7 & UPH,Hollywood,FL,33019,1200000
zpid_2062363925,5/25/2023,,,2380,4,4,https://www.zillow.com/homedetails/1317-SE-1st-St-1317-Fort-Lauderdale-FL-33301/2062363925_zpid/,1317 SE 1st St #1317,Fort Lauderdale,FL,33301,1100000
zpid_2062536493,5/31/2023,,,820,2,2,https://www.zillow.com/homedetails/380-Markham-Cres-380-R-Deerfield-Beach-FL-33442/2062536493_zpid/,380 Markham Cres #380-R,Deerfield Beach,FL,33442,142000
zpid_2062946182,6/1/2023,25.768652,-80.18913,1286,2,2,https://www.zillow.com/homedetails/485-Brickell-Ave-APT-1804-Miami-FL-33131/2062946182_zpid/,485 Brickell Ave APT 1804,Miami,FL,33131,908000
zpid_2063325326,5/22/2023,26.035864,-80.25047,1458,3,3,https://www.zillow.com/homedetails/2937-Cascada-Isles-Way-Hollywood-FL-33024/2063325326_zpid/,2937 Cascada Isles Way,Hollywood,FL,33024,595000
zpid_2063374141,5/19/2023,,,702,1,1,https://www.zillow.com/homedetails/4010-S-Ocean-Dr-UNIT-R2706-Hollywood-FL-33019/2063374141_zpid/,4010 S Ocean Dr UNIT R2706,Hollywood,FL,33019,580000
zpid_2063567889,5/18/2023,26.15259,-80.14585,800,1,1,https://www.zillow.com/homedetails/1950-N-Andrews-Ave-D209-Fort-Lauderdale-FL-33311/2063567889_zpid/,1950 N Andrews Ave #D209,Fort Lauderdale,FL,33311,165000
zpid_2063584388,5/15/2023,,,1110,2,2,https://www.zillow.com/homedetails/4917-SW-31st-Ter-109-Fort-Lauderdale-FL-33312/2063584388_zpid/,4917 SW 31st Ter #109,Fort Lauderdale,FL,33312,357500
zpid_2065413076,6/1/2023,,,1005,1,1,https://www.zillow.com/homedetails/Aventura-FL-33160/2065413076_zpid/,(undisclosed Address),Aventura,FL,33160,350000
zpid_2065665691,6/8/2023,,,3742,4,4,https://www.zillow.com/homedetails/2615-Anderson-Rd-7B-Miami-FL-33134/2065665691_zpid/,2615 Anderson Rd #7B,Miami,FL,33134,3900000
zpid_2066658698,5/17/2023,,,1485,3,3,https://www.zillow.com/homedetails/Miami-FL-33179/2066658698_zpid/,(undisclosed Address),Miami,FL,33179,485000
zpid_2067093276,5/31/2023,,,738,1,1,https://www.zillow.com/homedetails/2068-Newport-Dr-2068-Q-Deerfield-Beach-FL-33442/2067093276_zpid/,2068 Newport Dr #2068-Q,Deerfield Beach,FL,33442,120000
zpid_2067207060,6/5/2023,,,967,2,2,https://www.zillow.com/homedetails/4812-State-Rd-7-12104-Pompano-Beach-FL-33073/2067207060_zpid/,4812 State Rd #7-12104,Pompano Beach,FL,33073,298000
zpid_2067568220,6/8/2023,,,700,1,1,https://www.zillow.com/homedetails/1116-Cambridge-E-1116-Deerfield-Beach-FL-33442/2067568220_zpid/,1116 Cambridge E #1116,Deerfield Beach,FL,33442,155000
zpid_2068683155,5/22/2023,,,688,1,1,https://www.zillow.com/homedetails/18683-Collins-Ave-806-North-Miami-Beach-FL-33160/2068683155_zpid/,18683 Collins Ave #806,North Miami Beach,FL,33160,525000
zpid_2068723580,5/11/2023,,,812,1,1,https://www.zillow.com/homedetails/3849-NE-169th-St-409-C-North-Miami-Beach-FL-33160/2068723580_zpid/,3849 NE 169th St #409-C,North Miami Beach,FL,33160,218000
zpid_2070946261,5/19/2023,,,1678,2,2,https://www.zillow.com/homedetails/920-SW-147th-Ave-920-Hollywood-FL-33027/2070946261_zpid/,920 SW 147th Ave #920,Hollywood,FL,33027,385000
zpid_2071275008,5/19/2023,26.001549,-80.196144,968,2,2,https://www.zillow.com/homedetails/5300-Washington-St-APT-S214-Hollywood-FL-33021/2071275008_zpid/,5300 Washington St APT S214,Hollywood,FL,33021,150000
zpid_2071281270,5/18/2023,,,1400,3,3,https://www.zillow.com/homedetails/5652-Enclave-Pl-2-Fort-Lauderdale-FL-33319/2071281270_zpid/,5652 Enclave Pl #2,Fort Lauderdale,FL,33319,330000
zpid_2071281886,6/2/2023,25.953865,-80.16874,4212,6,6,https://www.zillow.com/homedetails/1625-Presidential-Way-Miami-FL-33179/2071281886_zpid/,1625 Presidential Way,Miami,FL,33179,1950000
zpid_2071331678,6/6/2023,,,1912,3,3,https://www.zillow.com/homedetails/4414-Morgan-Ln-4414-Fort-Lauderdale-FL-33328/2071331678_zpid/,4414 Morgan Ln #4414,Fort Lauderdale,FL,33328,515000
zpid_2073202311,5/25/2023,,,1723,2,2,https://www.zillow.com/homedetails/559-NE-21st-Ct-5-Fort-Lauderdale-FL-33305/2073202311_zpid/,559 NE 21st Ct #5,Fort Lauderdale,FL,33305,690000
zpid_2073742262,5/23/2023,,,1060,2,2,https://www.zillow.com/homedetails/4010-S-Ocean-Dr-R2809-Hollywood-FL-33019/2073742262_zpid/,4010 S Ocean Dr #R2809,Hollywood,FL,33019,800000
zpid_2075888435,6/1/2023,25.942495,-80.14552,1565,2,2,https://www.zillow.com/homedetails/18081-Biscayne-Blvd-APT-901-North-Miami-Beach-FL-33160/2075888435_zpid/,18081 Biscayne Blvd APT 901,North Miami Beach,FL,33160,425000
zpid_2075894006,5/17/2023,,,1372,2,2,https://www.zillow.com/homedetails/9955-NW-6th-Ct-9955-Fort-Lauderdale-FL-33324/2075894006_zpid/,9955 NW 6th Ct #9955,Fort Lauderdale,FL,33324,400000
zpid_2077056074,6/1/2023,25.763933,-80.34402,1776,3,3,https://www.zillow.com/homedetails/9182-SW-5th-Ln-9182-Miami-FL-33174/2077056074_zpid/,9182 SW 5th Ln #9182,Miami,FL,33174,560000
zpid_2077762164,5/31/2023,,,1810,4,4,https://www.zillow.com/homedetails/1218-1216-NE-112th-St-Miami-FL-33161/2077762164_zpid/,1218-1216 NE 112th St,Miami,FL,33161,830000
zpid_2078273174,5/25/2023,26.098076,-80.202614,1435,4,4,https://www.zillow.com/homedetails/1831-SW-41st-Ave-Fort-Lauderdale-FL-33317/2078273174_zpid/,1831 SW 41st Ave,Fort Lauderdale,FL,33317,415000
zpid_2079702071,5/31/2023,25.889456,-80.32096,1408,2,2,https://www.zillow.com/homedetails/1861-W-73rd-Pl-1861-Hialeah-FL-33014/2079702071_zpid/,1861 W 73rd Pl #1861,Hialeah,FL,33014,400000
zpid_2080450257,5/24/2023,26.149263,-80.272575,1420,3,3,https://www.zillow.com/homedetails/9089-W-Sunrise-Blvd-9089-Fort-Lauderdale-FL-33322/2080450257_zpid/,9089 W Sunrise Blvd #9089,Fort Lauderdale,FL,33322,417000
zpid_2083592027,5/23/2023,,,1907,3,3,https://www.zillow.com/homedetails/532-SE-1st-Cir-20-Pompano-Beach-FL-33060/2083592027_zpid/,532 SE 1st Cir #20,Pompano Beach,FL,33060,650000
zpid_2088129746,5/22/2023,26.101027,-80.297066,1937,3,3,https://www.zillow.com/homedetails/1504-W-Harmony-Lake-Cir-1504-Davie-FL-33324/2088129746_zpid/,1504 W Harmony Lake Cir #1504,Davie,FL,33324,388500
zpid_2088293226,6/12/2023,25.718199,-80.321846,760,1,1,https://www.zillow.com/homedetails/7849-Miller-Dr-APT-A212-Miami-FL-33155/2088293226_zpid/,7849 Miller Dr APT A212,Miami,FL,33155,190000
zpid_2090923819,6/8/2023,25.769499,-80.19582,2107,3,3,https://www.zillow.com/homedetails/92-SW-3rd-St-13-Miami-FL-33130/2090923819_zpid/,92 SW 3rd St #13,Miami,FL,33130,1400000
zpid_2092117364,6/8/2023,26.121252,-80.10639,1990,3,3,https://www.zillow.com/homedetails/100-S-Birch-Rd-APT-2702-Fort-Lauderdale-FL-33316/2092117364_zpid/,100 S Birch Rd APT 2702,Fort Lauderdale,FL,33316,1270000
zpid_2095203043,5/19/2023,26.11799,-80.15884,762,1,1,https://www.zillow.com/homedetails/1312-SW-3rd-Ct-1312-Fort-Lauderdale-FL-33312/2095203043_zpid/,1312 SW 3rd Ct #1312,Fort Lauderdale,FL,33312,297500
zpid_2099190424,6/1/2023,26.142454,-80.14279,1560,4,4,https://www.zillow.com/homedetails/1305-NE-2nd-Ave-Fort-Lauderdale-FL-33304/2099190424_zpid/,1305 NE 2nd Ave,Fort Lauderdale,FL,33304,480000
zpid_2102174748,5/17/2023,26.091867,-80.20426,2115,7,7,https://www.zillow.com/homedetails/4156-SW-24th-St-Fort-Lauderdale-FL-33317/2102174748_zpid/,4156 SW 24th St,Fort Lauderdale,FL,33317,615000
zpid_2103323144,6/9/2023,26.121567,-80.1302,2050,4,4,https://www.zillow.com/homedetails/1228-SE-1st-St-Fort-Lauderdale-FL-33301/2103323144_zpid/,1228 SE 1st St,Fort Lauderdale,FL,33301,1800000
zpid_2113592185,6/6/2023,25.867983,-80.12797,4488,8,8,https://www.zillow.com/homedetails/820-83rd-St-Miami-Beach-FL-33141/2113592185_zpid/,820 83rd St,Miami Beach,FL,33141,1400000
zpid_2123905178,5/23/2023,26.273153,-80.14068,1428,3,3,https://www.zillow.com/homedetails/3370-Beau-Rivage-Dr-APT-X3-Pompano-Beach-FL-33064/2123905178_zpid/,3370 Beau Rivage Dr APT X3,Pompano Beach,FL,33064,335000
zpid_2139176233,5/19/2023,26.15745,-80.13922,1839,4,4,https://www.zillow.com/homedetails/516-NE-24th-St-Wilton-Manors-FL-33305/2139176233_zpid/,516 NE 24th St,Wilton Manors,FL,33305,775000
zpid_2146553910,5/26/2023,25.801027,-80.24062,2730,8,8,https://www.zillow.com/homedetails/2731-NW-27th-St-Miami-FL-33142/2146553910_zpid/,2731 NW 27th St,Miami,FL,33142,900000
zpid_2146715318,5/19/2023,26.146912,-80.14389,2351,8,8,https://www.zillow.com/homedetails/1533-NE-1st-Ave-Fort-Lauderdale-FL-33304/2146715318_zpid/,1533 NE 1st Ave,Fort Lauderdale,FL,33304,700000
zpid_241692652,5/18/2023,25.762993,-80.1927,1593,3,3,https://www.zillow.com/homedetails/1080-Brickell-Ave-UNIT-4000-Miami-FL-33131/241692652_zpid/,1080 Brickell Ave UNIT 4000,Miami,FL,33131,1300000
zpid_245777740,6/12/2023,25.9108,-80.35207,2291,3,3,https://www.zillow.com/homedetails/3325-W-97th-St-Hialeah-FL-33018/245777740_zpid/,3325 W 97th St,Hialeah,FL,33018,630000
zpid_246618396,5/23/2023,25.995686,-80.30228,2081,3,3,https://www.zillow.com/homedetails/11613-SW-13th-Ct-Pembroke-Pines-FL-33025/246618396_zpid/,11613 SW 13th Ct,Pembroke Pines,FL,33025,605000
zpid_246618447,5/15/2023,26.121712,-80.12079,2531,3,3,https://www.zillow.com/homedetails/21-Isle-Of-Venice-Dr-402-Fort-Lauderdale-FL-33301/246618447_zpid/,21 Isle Of Venice Dr #402,Fort Lauderdale,FL,33301,2400000
zpid_246935359,5/24/2023,26.036266,-80.14852,1618,4,4,https://www.zillow.com/homedetails/317-SW-13th-St-Dania-Beach-FL-33004/246935359_zpid/,317 SW 13th St,Dania Beach,FL,33004,300000
zpid_247649762,6/6/2023,25.76704,-80.194496,994,1,2,https://www.zillow.com/homedetails/88-SW-7th-St-APT-2407-Miami-FL-33130/247649762_zpid/,88 SW 7th St APT 2407,Miami,FL,33130,765000
zpid_247650014,5/30/2023,25.765661,-80.19378,852,1,1,https://www.zillow.com/homedetails/45-SW-9th-St-APT-4005-Miami-FL-33130/247650014_zpid/,45 SW 9th St APT 4005,Miami,FL,33130,620000
zpid_247652697,5/30/2023,25.746897,-80.26954,1972,2,2,https://www.zillow.com/homedetails/718-Valencia-Ave-207-Coral-Gables-FL-33134/247652697_zpid/,718 Valencia Ave #207,Coral Gables,FL,33134,1550000
zpid_247652786,5/30/2023,25.765661,-80.19421,926,2,2,https://www.zillow.com/homedetails/55-SW-9th-St-APT-1501-Miami-FL-33130/247652786_zpid/,55 SW 9th St APT 1501,Miami,FL,33130,700000
zpid_247653093,5/16/2023,25.758121,-80.1924,1287,2,2,https://www.zillow.com/homedetails/1451-Brickell-Ave-UNIT-1601-Miami-FL-33131/247653093_zpid/,1451 Brickell Ave UNIT 1601,Miami,FL,33131,1200000
zpid_247679515,5/30/2023,25.854824,-80.1784,2948,4,4,https://www.zillow.com/homedetails/8630-Arboretum-Ln-Miami-FL-33138/247679515_zpid/,8630 Arboretum Ln,Miami,FL,33138,1930000
zpid_247680687,5/25/2023,25.89517,-80.12321,2130,2,2,https://www.zillow.com/homedetails/10201-Collins-Ave-UNIT-502-Bal-Harbour-FL-33154/247680687_zpid/,10201 Collins Ave UNIT 502,Bal Harbour,FL,33154,6350000
zpid_247698530,5/22/2023,25.84489,-80.36962,1130,2,2,https://www.zillow.com/homedetails/7825-NW-107th-Ave-APT-321-Doral-FL-33178/247698530_zpid/,7825 NW 107th Ave APT 321,Doral,FL,33178,400000
zpid_247699278,5/10/2023,25.915258,-80.356735,2571,4,4,https://www.zillow.com/homedetails/3493-W-101st-Ter-Hialeah-FL-33018/247699278_zpid/,3493 W 101st Ter,Hialeah,FL,33018,600000
zpid_247701520,6/9/2023,25.8356,-80.36386,2782,4,4,https://www.zillow.com/homedetails/6821-NW-103rd-Ave-Doral-FL-33178/247701520_zpid/,6821 NW 103rd Ave,Doral,FL,33178,1000000
zpid_247701705,5/10/2023,25.838432,-80.36489,1743,3,3,https://www.zillow.com/homedetails/10245-NW-71st-Ter-Doral-FL-33178/247701705_zpid/,10245 NW 71st Ter,Doral,FL,33178,625000
zpid_247702870,6/6/2023,25.913807,-80.2407,1150,3,2,https://www.zillow.com/homedetails/2420-NW-153rd-St-Miami-Gardens-FL-33054/247702870_zpid/,2420 NW 153rd St,Miami Gardens,FL,33054,489000
zpid_247703101,6/6/2023,25.907652,-80.3551,2808,5,3,https://www.zillow.com/homedetails/3514-W-94th-St-Hialeah-FL-33018/247703101_zpid/,3514 W 94th St,Hialeah,FL,33018,690000
zpid_247762410,6/1/2023,25.766138,-80.19291,838,1,1,https://www.zillow.com/homedetails/801-S-Miami-Ave-UNIT-2303-Miami-FL-33130/247762410_zpid/,801 S Miami Ave UNIT 2303,Miami,FL,33130,650000
zpid_249916750,5/19/2023,25.807314,-80.185486,1526,3,3,https://www.zillow.com/homedetails/3131-NE-7th-Ave-UNIT-3804-Miami-FL-33137/249916750_zpid/,3131 NE 7th Ave UNIT 3804,Miami,FL,33137,1440000
zpid_250760515,5/19/2023,25.903255,-80.238365,1046,3,3,https://www.zillow.com/homedetails/14100-NW-23rd-Ct-Opa-Locka-FL-33054/250760515_zpid/,14100 NW 23rd Ct,Opa Locka,FL,33054,385000
zpid_251461451,5/22/2023,26.132994,-80.103806,1536,1,1,https://www.zillow.com/homedetails/701-N-Fort-Lauderdale-Blvd-112-Fort-Lauderdale-FL-33304/251461451_zpid/,701 N Fort Lauderdale Blvd #112,Fort Lauderdale,FL,33304,1110000
zpid_251461494,5/23/2023,26.132994,-80.103806,3204,4,4,https://www.zillow.com/homedetails/701-N-Fort-Lauderdale-Blvd-702-Fort-Lauderdale-FL-33304/251461494_zpid/,701 N Fort Lauderdale Blvd #702,Fort Lauderdale,FL,33304,4200000
zpid_251462267,5/26/2023,26.059437,-80.23229,1706,3,3,https://www.zillow.com/homedetails/4990-Loebner-Ter-Davie-FL-33314/251462267_zpid/,4990 Loebner Ter,Davie,FL,33314,505000
zpid_251462698,5/26/2023,26.095966,-80.10691,2665,3,3,https://www.zillow.com/homedetails/2200-N-Ocean-Blvd-N702-Fort-Lauderdale-FL-33305/251462698_zpid/,2200 N Ocean Blvd #N702,Fort Lauderdale,FL,33305,3850000
zpid_251462863,5/15/2023,26.128515,-80.10683,1293,2,2,https://www.zillow.com/homedetails/401-N-Birch-Rd-UNIT-715-Fort-Lauderdale-FL-33304/251462863_zpid/,401 N Birch Rd UNIT 715,Fort Lauderdale,FL,33304,1130000
zpid_251463199,6/9/2023,26.024466,-80.31569,3033,4,4,https://www.zillow.com/homedetails/1797-NW-124th-Pl-Pembroke-Pines-FL-33028/251463199_zpid/,1797 NW 124th Pl,Pembroke Pines,FL,33028,655000
zpid_252195227,6/9/2023,25.940126,-80.34706,1961,3,3,https://www.zillow.com/homedetails/8943-NW-183rd-St-Hialeah-FL-33018/252195227_zpid/,8943 NW 183rd St,Hialeah,FL,33018,560000
zpid_252195266,5/30/2023,25.845715,-80.37018,668,1,1,https://www.zillow.com/homedetails/7875-NW-107th-Ave-APT-804-Doral-FL-33178/252195266_zpid/,7875 NW 107th Ave APT 804,Doral,FL,33178,328000
zpid_252196053,6/1/2023,25.845715,-80.37018,714,1,1,https://www.zillow.com/homedetails/7875-NW-107th-Ave-APT-401-Doral-FL-33178/252196053_zpid/,7875 NW 107th Ave APT 401,Doral,FL,33178,320000
zpid_299148787,5/15/2023,26.137377,-80.1092,585,1,1,https://www.zillow.com/homedetails/2670-E-Sunrise-Blvd-728-Fort-Lauderdale-FL-33304/299148787_zpid/,2670 E Sunrise Blvd #728,Fort Lauderdale,FL,33304,222000
zpid_299148832,5/23/2023,26.137377,-80.1092,470,1,1,https://www.zillow.com/homedetails/2670-E-Sunrise-Blvd-1002-Fort-Lauderdale-FL-33304/299148832_zpid/,2670 E Sunrise Blvd #1002,Fort Lauderdale,FL,33304,175000
zpid_299149587,5/15/2023,26.111488,-80.1553,3117,3,3,https://www.zillow.com/homedetails/811-SW-10th-Ter-Fort-Lauderdale-FL-33315/299149587_zpid/,811 SW 10th Ter,Fort Lauderdale,FL,33315,975000
zpid_299150305,5/24/2023,26.098225,-80.18319,4393,5,5,https://www.zillow.com/homedetails/1841-SW-29th-Ave-Fort-Lauderdale-FL-33312/299150305_zpid/,1841 SW 29th Ave,Fort Lauderdale,FL,33312,1020000
zpid_299151956,5/26/2023,26.035362,-80.14693,1648,3,3,https://www.zillow.com/homedetails/267-SW-14th-St-Dania-FL-33004/299151956_zpid/,267 SW 14th St,Dania,FL,33004,450000
zpid_306109169,6/6/2023,26.243912,-80.0873,1830,3,3,https://www.zillow.com/homedetails/730-N-Ocean-Blvd-UNIT-905-Pompano-Beach-FL-33062/306109169_zpid/,730 N Ocean Blvd UNIT 905,Pompano Beach,FL,33062,1830000
zpid_306394944,5/19/2023,25.807034,-80.18732,750,1,1,https://www.zillow.com/homedetails/501-NE-31st-St-UNIT-2203-Miami-FL-33137/306394944_zpid/,501 NE 31st St UNIT 2203,Miami,FL,33137,490000
zpid_306399024,6/6/2023,25.932873,-80.1212,2496,3,3,https://www.zillow.com/homedetails/16901-Collins-Ave-2303-Sunny-Isles-Beach-FL-33160/306399024_zpid/,16901 Collins Ave #2303,Sunny Isles Beach,FL,33160,3550000
zpid_308906420,5/25/2023,25.93482,-80.12158,2042,2,2,https://www.zillow.com/homedetails/17141-Collins-Ave-UNIT-2502-Sunny-Isles-Beach-FL-33160/308906420_zpid/,17141 Collins Ave UNIT 2502,Sunny Isles Beach,FL,33160,2750000
zpid_308906630,5/31/2023,25.92647,-80.15353,1556,3,3,https://www.zillow.com/homedetails/16385-Biscayne-Blvd-2521-North-Miami-Beach-FL-33160/308906630_zpid/,16385 Biscayne Blvd #2521,North Miami Beach,FL,33160,1000000
zpid_308908082,5/22/2023,25.92647,-80.15353,1119,2,2,https://www.zillow.com/homedetails/16385-Biscayne-Blvd-UNIT-2219-North-Miami-Beach-FL-33160/308908082_zpid/,16385 Biscayne Blvd UNIT 2219,North Miami Beach,FL,33160,659000
zpid_308908184,5/19/2023,25.92647,-80.15353,937,1,1,https://www.zillow.com/homedetails/16385-Biscayne-Blvd-UNIT-2702-North-Miami-Beach-FL-33160/308908184_zpid/,16385 Biscayne Blvd UNIT 2702,North Miami Beach,FL,33160,485000
zpid_308909237,6/8/2023,25.93482,-80.12158,2042,2,2,https://www.zillow.com/homedetails/17141-Collins-Ave-UNIT-4702-Sunny-Isles-Beach-FL-33160/308909237_zpid/,17141 Collins Ave UNIT 4702,Sunny Isles Beach,FL,33160,3500000
zpid_308909252,6/9/2023,25.845177,-80.36548,1072,2,2,https://www.zillow.com/homedetails/7855-NW-104th-Ave-25-Doral-FL-33178/308909252_zpid/,7855 NW 104th Ave #25,Doral,FL,33178,420000
zpid_317106623,5/30/2023,25.92069,-80.35442,2174,4,4,https://www.zillow.com/homedetails/3422-W-108th-St-Hialeah-FL-33018/317106623_zpid/,3422 W 108th St,Hialeah,FL,33018,622500
zpid_331696692,6/8/2023,25.929436,-80.1261,1892,3,3,https://www.zillow.com/homedetails/330-Sunny-Isles-Blvd-5-1007-Sunny-Isles-Beach-FL-33160/331696692_zpid/,330 Sunny Isles Blvd #5-1007,Sunny Isles Beach,FL,33160,1300000
zpid_331696707,5/30/2023,25.929436,-80.1261,1892,3,3,https://www.zillow.com/homedetails/330-Sunny-Isles-Blvd-UNIT-5-1508-Sunny-Isles-Beach-FL-33160/331696707_zpid/,330 Sunny Isles Blvd UNIT 5-1508,Sunny Isles Beach,FL,33160,1660000
zpid_331697136,5/22/2023,25.831938,-80.362854,1322,3,3,https://www.zillow.com/homedetails/10222-NW-64th-Way-UNIT-103-Doral-FL-33178/331697136_zpid/,10222 NW 64th Way UNIT 103,Doral,FL,33178,487500
zpid_331699196,5/30/2023,25.902979,-80.15851,903,2,2,https://www.zillow.com/homedetails/13800-Highland-Dr-304-North-Miami-Beach-FL-33181/331699196_zpid/,13800 Highland Dr #304,North Miami Beach,FL,33181,468750
zpid_331699518,5/9/2023,25.733274,-80.261406,906,2,2,https://www.zillow.com/homedetails/301-Altara-Ave-613-Coral-Gables-FL-33146/331699518_zpid/,301 Altara Ave #613,Coral Gables,FL,33146,820000
zpid_331699716,5/22/2023,25.95148,-80.1205,2682,4,4,https://www.zillow.com/homedetails/18975-Collins-Ave-2502-Sunny-Isles-Beach-FL-33160/331699716_zpid/,18975 Collins Ave #2502,Sunny Isles Beach,FL,33160,4210000
zpid_333138378,5/17/2023,26.149343,-80.32789,920,2,2,https://www.zillow.com/homedetails/2000-Metropica-Way-1807-Fort-Lauderdale-FL-33323/333138378_zpid/,2000 Metropica Way #1807,Fort Lauderdale,FL,33323,525000
zpid_333138485,5/18/2023,26.119097,-80.14235,5281,5,5,https://www.zillow.com/homedetails/100-E-Las-Olas-Blvd-4603-Fort-Lauderdale-FL-33301/333138485_zpid/,100 E Las Olas Blvd #4603,Fort Lauderdale,FL,33301,5000000
zpid_337200259,6/9/2023,25.929436,-80.1261,4736,4,6,https://www.zillow.com/homedetails/330-Sunny-Isles-Blvd-UNIT-5-TS04-Sunny-Isles-Beach-FL-33160/337200259_zpid/,330 Sunny Isles Blvd UNIT 5-TS04,Sunny Isles Beach,FL,33160,4450000
zpid_337201875,6/9/2023,25.739828,-80.25556,2284,3,3,https://www.zillow.com/homedetails/3767-SW-27th-Ln-3767-Miami-FL-33134/337201875_zpid/,3767 SW 27th Ln #3767,Miami,FL,33134,1100000
zpid_337202199,5/16/2023,25.740131,-80.21776,3206,4,4,https://www.zillow.com/homedetails/3581-E-Glencoe-St-UNIT-501-Miami-FL-33133/337202199_zpid/,3581 E Glencoe St UNIT 501,Miami,FL,33133,6600000
zpid_338257253,5/17/2023,26.119059,-80.157104,1008,2,2,https://www.zillow.com/homedetails/230-SW-12th-Ave-Fort-Lauderdale-FL-33312/338257253_zpid/,230 SW 12th Ave,Fort Lauderdale,FL,33312,550000
zpid_338257256,5/19/2023,26.114435,-80.1669,1621,3,3,https://www.zillow.com/homedetails/1927-SW-5th-Pl-Fort-Lauderdale-FL-33312/338257256_zpid/,1927 SW 5th Pl,Fort Lauderdale,FL,33312,532000
zpid_338257407,5/31/2023,25.9644,-80.37616,2676,4,4,https://www.zillow.com/homedetails/4391-SW-173rd-Ave-Miramar-FL-33029/338257407_zpid/,4391 SW 173rd Ave,Miramar,FL,33029,907000
zpid_338629629,6/9/2023,26.132107,-80.12922,2321,3,3,https://www.zillow.com/homedetails/700-NE-14th-Ave-207-Fort-Lauderdale-FL-33304/338629629_zpid/,700 NE 14th Ave #207,Fort Lauderdale,FL,33304,1410000
zpid_338629701,Mon-Sun:,26.002108,-80.362206,1697,3,3,https://www.zillow.com/homedetails/250-SW-159th-Dr-Hollywood-FL-33027/338629701_zpid/,250 SW 159th Dr,Hollywood,FL,33027,546400
zpid_338629721,Mon-Sun:,26.00209,-80.36216,1828,3,3,https://www.zillow.com/homedetails/258-SW-159th-Dr-Hollywood-FL-33027/338629721_zpid/,258 SW 159th Dr,Hollywood,FL,33027,566800
zpid_338629845,5/17/2023,25.978725,-80.1185,2913,3,3,https://www.zillow.com/homedetails/2000-S-Ocean-Dr-11B-Hallandale-FL-33009/338629845_zpid/,2000 S Ocean Dr #11B,Hallandale,FL,33009,3250000
zpid_42822638,6/2/2023,26.326176,-80.15294,1446,2,2,https://www.zillow.com/homedetails/3477-Deer-Creek-Palladian-Cir-Deerfield-Beach-FL-33442/42822638_zpid/,3477 Deer Creek Palladian Cir,Deerfield Beach,FL,33442,435000
zpid_42823502,5/22/2023,26.323618,-80.13036,3272,3,3,https://www.zillow.com/homedetails/1951-Woodlake-Ter-Deerfield-Beach-FL-33442/42823502_zpid/,1951 Woodlake Ter,Deerfield Beach,FL,33442,915000
zpid_42824006,5/22/2023,26.322428,-80.11038,2092,7,7,https://www.zillow.com/homedetails/340-NW-4th-Ave-Deerfield-Beach-FL-33441/42824006_zpid/,340 NW 4th Ave,Deerfield Beach,FL,33441,480000
zpid_42824466,6/9/2023,26.323376,-80.08985,1002,2,2,https://www.zillow.com/homedetails/410-N-Federal-Hwy-APT-417-Deerfield-Beach-FL-33441/42824466_zpid/,410 N Federal Hwy APT 417,Deerfield Beach,FL,33441,440000
zpid_42825191,6/2/2023,26.305891,-80.202934,2730,4,4,https://www.zillow.com/homedetails/5701-NW-60th-Pl-Parkland-FL-33067/42825191_zpid/,5701 NW 60th Pl,Parkland,FL,33067,825000
zpid_42826687,5/23/2023,26.313866,-80.26828,3161,5,5,https://www.zillow.com/homedetails/6733-NW-105th-Ln-Parkland-FL-33076/42826687_zpid/,6733 NW 105th Ln,Parkland,FL,33076,1290000
zpid_42827278,5/22/2023,26.307858,-80.269394,2198,4,4,https://www.zillow.com/homedetails/10710-NW-62nd-Ct-Parkland-FL-33076/42827278_zpid/,10710 NW 62nd Ct,Parkland,FL,33076,825000
zpid_42829573,5/22/2023,26.288122,-80.277664,1961,4,4,https://www.zillow.com/homedetails/11177-NW-46th-Dr-Pompano-Beach-FL-33076/42829573_zpid/,11177 NW 46th Dr,Pompano Beach,FL,33076,660000
zpid_42831174,6/12/2023,26.297075,-80.2624,2217,4,4,https://www.zillow.com/homedetails/5350-NW-102nd-Ave-Coral-Springs-FL-33076/42831174_zpid/,5350 NW 102nd Ave,Coral Springs,FL,33076,805000
zpid_42831510,6/2/2023,26.29268,-80.24393,2325,4,4,https://www.zillow.com/homedetails/5000-NW-88th-Ln-Coral-Springs-FL-33067/42831510_zpid/,5000 NW 88th Ln,Coral Springs,FL,33067,775000
zpid_42831529,6/12/2023,26.293592,-80.2397,2476,4,4,https://www.zillow.com/homedetails/5199-NW-84th-Rd-Coral-Springs-FL-33067/42831529_zpid/,5199 NW 84th Rd,Coral Springs,FL,33067,835000
zpid_42832143,6/12/2023,26.29966,-80.245995,2046,4,4,https://www.zillow.com/homedetails/5611-NW-89th-Ave-Pompano-Beach-FL-33067/42832143_zpid/,5611 NW 89th Ave,Pompano Beach,FL,33067,710000
zpid_42834115,5/22/2023,26.291027,-80.207825,2301,4,4,https://www.zillow.com/homedetails/5723-NW-50th-Dr-Coral-Springs-FL-33067/42834115_zpid/,5723 NW 50th Dr,Coral Springs,FL,33067,650000
zpid_42834444,6/9/2023,26.28198,-80.21108,2548,4,3,https://www.zillow.com/homedetails/6450-NW-42nd-Ct-Coral-Springs-FL-33067/42834444_zpid/,6450 NW 42nd Ct,Coral Springs,FL,33067,800000
zpid_42837546,6/2/2023,26.28241,-80.24233,680,1,1,https://www.zillow.com/homedetails/4125-NW-88th-Ave-APT-204-Pompano-Beach-FL-33065/42837546_zpid/,4125 NW 88th Ave APT 204,Pompano Beach,FL,33065,127000
zpid_42841470,6/12/2023,26.26178,-80.289734,1405,3,3,https://www.zillow.com/homedetails/2449-NW-123rd-Ave-Coral-Springs-FL-33065/42841470_zpid/,2449 NW 123rd Ave,Coral Springs,FL,33065,540000
zpid_42841472,6/9/2023,26.261557,-80.28945,1405,3,2,https://www.zillow.com/homedetails/2423-NW-123rd-Ave-Coral-Springs-FL-33065/42841472_zpid/,2423 NW 123rd Ave,Coral Springs,FL,33065,485000
zpid_42841563,5/22/2023,26.270393,-80.288216,2102,4,4,https://www.zillow.com/homedetails/12126-NW-32nd-Pl-Coral-Springs-FL-33065/42841563_zpid/,12126 NW 32nd Pl,Coral Springs,FL,33065,660000
zpid_42842800,6/2/2023,26.268185,-80.279915,2708,4,4,https://www.zillow.com/homedetails/11521-NW-30th-St-Coral-Springs-FL-33065/42842800_zpid/,11521 NW 30th St,Coral Springs,FL,33065,640000
zpid_42842871,5/23/2023,26.262445,-80.28115,1432,3,3,https://www.zillow.com/homedetails/2532-NW-116th-Ter-Pompano-Beach-FL-33065/42842871_zpid/,2532 NW 116th Ter,Pompano Beach,FL,33065,370000
zpid_42843310,6/12/2023,26.259,-80.2779,753,2,2,https://www.zillow.com/homedetails/11378-Royal-Palm-Blvd-11378-Pompano-Beach-FL-33065/42843310_zpid/,11378 Royal Palm Blvd #11378,Pompano Beach,FL,33065,195000
zpid_42844582,6/12/2023,26.26515,-80.25492,1614,3,3,https://www.zillow.com/homedetails/9657-NW-28th-St-Coral-Springs-FL-33065/42844582_zpid/,9657 NW 28th St,Coral Springs,FL,33065,553000
zpid_42849799,6/9/2023,26.264544,-80.232735,958,2,2,https://www.zillow.com/homedetails/3180-Holiday-Springs-Blvd-5-112-Margate-FL-33063/42849799_zpid/,3180 Holiday Springs Blvd #5-112,Margate,FL,33063,150000
zpid_42850090,6/9/2023,26.261868,-80.23297,720,1,1,https://www.zillow.com/homedetails/3100-Holiday-Springs-Blvd-APT-203-Pompano-Beach-FL-33063/42850090_zpid/,3100 Holiday Springs Blvd APT 203,Pompano Beach,FL,33063,112000
zpid_42851918,6/1/2023,26.269995,-80.21213,1500,3,3,https://www.zillow.com/homedetails/6490-Buena-Vista-Dr-Margate-FL-33063/42851918_zpid/,6490 Buena Vista Dr,Margate,FL,33063,490000
zpid_42854514,5/18/2023,26.243256,-80.21429,952,2,2,https://www.zillow.com/homedetails/1085-NW-66th-Ter-Margate-FL-33063/42854514_zpid/,1085 NW 66th Ter,Margate,FL,33063,299900
zpid_42855370,6/1/2023,26.252245,-80.2152,970,2,2,https://www.zillow.com/homedetails/6750-Royal-Palm-Blvd-APT-111E-Pompano-Beach-FL-33063/42855370_zpid/,6750 Royal Palm Blvd APT 111E,Pompano Beach,FL,33063,155000
zpid_42856047,5/23/2023,26.24414,-80.23289,1540,3,3,https://www.zillow.com/homedetails/8070-NW-11th-St-H-Margate-FL-33063/42856047_zpid/,8070 NW 11th St #H,Margate,FL,33063,343000
zpid_42856175,5/24/2023,26.252869,-80.231834,1938,3,3,https://www.zillow.com/homedetails/7816-Sunflower-Dr-Margate-FL-33063/42856175_zpid/,7816 Sunflower Dr,Margate,FL,33063,559500
zpid_42857832,6/12/2023,26.24863,-80.22802,1000,2,2,https://www.zillow.com/homedetails/7640-NW-18th-St-APT-108-Pompano-Beach-FL-33063/42857832_zpid/,7640 NW 18th St APT 108,Pompano Beach,FL,33063,210000
zpid_42859361,6/1/2023,26.243279,-80.23869,2154,5,5,https://www.zillow.com/homedetails/1051-NW-83rd-Dr-Coral-Springs-FL-33071/42859361_zpid/,1051 NW 83rd Dr,Coral Springs,FL,33071,675000
zpid_42860625,6/12/2023,26.255777,-80.26358,3005,6,6,https://www.zillow.com/homedetails/2062-NW-102nd-Ter-Coral-Springs-FL-33071/42860625_zpid/,2062 NW 102nd Ter,Coral Springs,FL,33071,755000
zpid_42860838,5/23/2023,26.247665,-80.258934,2024,3,3,https://www.zillow.com/homedetails/9975-Ramblewood-Dr-Coral-Springs-FL-33071/42860838_zpid/,9975 Ramblewood Dr,Coral Springs,FL,33071,635000
zpid_42861326,5/18/2023,26.2412,-80.26042,598,1,1,https://www.zillow.com/homedetails/10001-W-Atlantic-Blvd-APT-225-Pompano-Beach-FL-33071/42861326_zpid/,10001 W Atlantic Blvd APT 225,Pompano Beach,FL,33071,167500
zpid_42862047,6/1/2023,26.24638,-80.275826,2315,4,4,https://www.zillow.com/homedetails/11235-NW-12th-Ct-Coral-Springs-FL-33071/42862047_zpid/,11235 NW 12th Ct,Coral Springs,FL,33071,669900
zpid_42863904,6/12/2023,26.253403,-80.29075,3000,5,5,https://www.zillow.com/homedetails/1858-NW-124th-Ave-Coral-Springs-FL-33071/42863904_zpid/,1858 NW 124th Ave,Coral Springs,FL,33071,950000
zpid_42864276,5/18/2023,26.234858,-80.2835,2427,4,4,https://www.zillow.com/homedetails/273-NW-118th-Ter-Coral-Springs-FL-33071/42864276_zpid/,273 NW 118th Ter,Coral Springs,FL,33071,585000
zpid_42865461,5/26/2023,26.230259,-80.27361,2336,4,4,https://www.zillow.com/homedetails/11080-SW-1st-St-Coral-Springs-FL-33071/42865461_zpid/,11080 SW 1st St,Coral Springs,FL,33071,757500
zpid_42866434,5/23/2023,26.23522,-80.25987,2860,4,4,https://www.zillow.com/homedetails/328-NW-100th-Ln-Coral-Springs-FL-33071/42866434_zpid/,328 NW 100th Ln,Coral Springs,FL,33071,685000
zpid_42867543,5/24/2023,26.232244,-80.2445,2304,4,4,https://www.zillow.com/homedetails/8899-NW-1st-St-Coral-Springs-FL-33071/42867543_zpid/,8899 NW 1st St,Coral Springs,FL,33071,546000
zpid_42867583,5/23/2023,26.232552,-80.23962,2390,4,4,https://www.zillow.com/homedetails/8464-NW-2nd-St-Coral-Springs-FL-33071/42867583_zpid/,8464 NW 2nd St,Coral Springs,FL,33071,640000
zpid_42867957,5/18/2023,26.237246,-80.241264,1534,3,3,https://www.zillow.com/homedetails/447-NW-87th-Ter-Coral-Springs-FL-33071/42867957_zpid/,447 NW 87th Ter,Coral Springs,FL,33071,500000
zpid_42868578,6/1/2023,26.23798,-80.21831,1491,3,3,https://www.zillow.com/homedetails/6921-NW-5th-Pl-Pompano-Beach-FL-33063/42868578_zpid/,6921 NW 5th Pl,Pompano Beach,FL,33063,480000
zpid_42869258,5/18/2023,26.231722,-80.23136,2075,4,4,https://www.zillow.com/homedetails/132-NW-79th-Ter-Margate-FL-33063/42869258_zpid/,132 NW 79th Ter,Margate,FL,33063,475000
zpid_42869280,5/26/2023,26.234003,-80.232925,1253,3,3,https://www.zillow.com/homedetails/240-NW-80th-Ter-Pompano-Beach-FL-33063/42869280_zpid/,240 NW 80th Ter,Pompano Beach,FL,33063,449000
zpid_42869590,5/26/2023,26.228802,-80.23104,1458,3,3,https://www.zillow.com/homedetails/7780-SW-1st-St-Margate-FL-33068/42869590_zpid/,7780 SW 1st St,Margate,FL,33068,450000
zpid_42870396,5/30/2023,26.23634,-80.22185,670,1,1,https://www.zillow.com/homedetails/7200-NW-4th-Pl-APT-104-Pompano-Beach-FL-33063/42870396_zpid/,7200 NW 4th Pl APT 104,Pompano Beach,FL,33063,112500
zpid_42870521,5/26/2023,26.241776,-80.22908,775,1,1,https://www.zillow.com/homedetails/1015-Country-Club-Dr-APT-105-Margate-FL-33063/42870521_zpid/,1015 Country Club Dr APT 105,Margate,FL,33063,129900
zpid_42870779,5/30/2023,26.237514,-80.2221,990,2,2,https://www.zillow.com/homedetails/7200-NW-5th-Pl-APT-207-Pompano-Beach-FL-33063/42870779_zpid/,7200 NW 5th Pl APT 207,Pompano Beach,FL,33063,130000
zpid_42870909,5/30/2023,26.231447,-80.22703,990,2,2,https://www.zillow.com/homedetails/7680-NW-1st-St-APT-101-Margate-FL-33063/42870909_zpid/,7680 NW 1st St APT 101,Margate,FL,33063,115000
zpid_42870936,5/17/2023,26.230837,-80.22714,670,1,1,https://www.zillow.com/homedetails/7640-NW-1st-St-APT-204-Margate-FL-33063/42870936_zpid/,7640 NW 1st St APT 204,Margate,FL,33063,96000
zpid_42871224,6/1/2023,26.23089,-80.22289,670,1,1,https://www.zillow.com/homedetails/7290-NW-1st-St-APT-204-Margate-FL-33063/42871224_zpid/,7290 NW 1st St APT 204,Margate,FL,33063,94000
zpid_42871662,5/24/2023,26.231398,-80.22296,1100,2,2,https://www.zillow.com/homedetails/363-N-Rock-Island-Rd-APT-202-Margate-FL-33063/42871662_zpid/,363 N Rock Island Rd APT 202,Margate,FL,33063,178000
zpid_42871970,5/17/2023,26.23634,-80.22621,990,2,2,https://www.zillow.com/homedetails/7605-NW-4th-Pl-APT-102-Pompano-Beach-FL-33063/42871970_zpid/,7605 NW 4th Pl APT 102,Pompano Beach,FL,33063,117000
zpid_42872330,5/26/2023,26.236109,-80.23012,990,2,2,https://www.zillow.com/homedetails/550-NW-78th-Ave-APT-202-Margate-FL-33063/42872330_zpid/,550 NW 78th Ave APT 202,Margate,FL,33063,120000
zpid_42872641,5/26/2023,26.23595,-80.2325,990,2,2,https://www.zillow.com/homedetails/551-NW-80th-Ave-APT-101-Margate-FL-33063/42872641_zpid/,551 NW 80th Ave APT 101,Margate,FL,33063,142000
zpid_42872727,5/24/2023,26.237167,-80.20908,1896,3,3,https://www.zillow.com/homedetails/609-E-River-Dr-Margate-FL-33063/42872727_zpid/,609 E River Dr,Margate,FL,33063,390000
zpid_42872748,5/26/2023,,,1594,3,3,https://www.zillow.com/homedetails/Pompano-Beach-FL-33063/42872748_zpid/,(undisclosed Address),Pompano Beach,FL,33063,350000
zpid_42875643,5/17/2023,26.311144,-80.130875,719,1,1,https://www.zillow.com/homedetails/2031-Berkshire-B-Deerfield-Beach-FL-33442/42875643_zpid/,2031 Berkshire #B,Deerfield Beach,FL,33442,118000
zpid_42876358,5/18/2023,26.306965,-80.13123,700,1,1,https://www.zillow.com/homedetails/166-Farnham-Cres-G-Deerfield-Beach-FL-33442/42876358_zpid/,166 Farnham Cres #G,Deerfield Beach,FL,33442,90000
zpid_42876713,5/24/2023,26.314013,-80.13715,603,1,1,https://www.zillow.com/homedetails/4021-Durham-Cir-A-Deerfield-Beach-FL-33442/42876713_zpid/,4021 Durham Cir #A,Deerfield Beach,FL,33442,135000
zpid_42877064,5/26/2023,26.305971,-80.13334,700,1,1,https://www.zillow.com/homedetails/3008-Farnham-N-Deerfield-Beach-FL-33442/42877064_zpid/,3008 Farnham N,Deerfield Beach,FL,33442,140000
zpid_42877070,5/18/2023,26.305971,-80.13334,828,2,2,https://www.zillow.com/homedetails/3014-Farnham-N-Deerfield-Beach-FL-33442/42877070_zpid/,3014 Farnham N,Deerfield Beach,FL,33442,140000
zpid_42877389,5/26/2023,26.313457,-80.12967,820,2,2,https://www.zillow.com/homedetails/25-Upminster-B-Deerfield-Beach-FL-33442/42877389_zpid/,25 Upminster #B,Deerfield Beach,FL,33442,140000
zpid_42877926,5/23/2023,26.309107,-80.13526,900,2,2,https://www.zillow.com/homedetails/356-Grantham-E-Deerfield-Beach-FL-33442/42877926_zpid/,356 Grantham E,Deerfield Beach,FL,33442,165000
zpid_42877986,5/23/2023,26.317474,-80.13162,703,1,1,https://www.zillow.com/homedetails/30-Westbury-30-B-Deerfield-Beach-FL-33442/42877986_zpid/,30 Westbury #30-B,Deerfield Beach,FL,33442,96000
zpid_42877997,5/23/2023,26.31782,-80.13331,700,1,1,https://www.zillow.com/homedetails/41-Westbury-Cir-B-Deerfield-Beach-FL-33442/42877997_zpid/,41 Westbury Cir #B,Deerfield Beach,FL,33442,125000
zpid_42878028,5/24/2023,26.317495,-80.13267,820,2,2,https://www.zillow.com/homedetails/72-Westbury-Cir-C-Deerfield-Beach-FL-33442/42878028_zpid/,72 Westbury Cir #C,Deerfield Beach,FL,33442,130000
zpid_42878213,5/31/2023,26.31562,-80.13277,860,2,2,https://www.zillow.com/homedetails/2097-Westbury-Cir-H-Deerfield-Beach-FL-33442/42878213_zpid/,2097 Westbury Cir #H,Deerfield Beach,FL,33442,61666
zpid_42878223,5/24/2023,26.31562,-80.13277,738,1,1,https://www.zillow.com/homedetails/3087-Westbury-Cir-H-Deerfield-Beach-FL-33442/42878223_zpid/,3087 Westbury Cir #H,Deerfield Beach,FL,33442,97000
zpid_42878558,5/24/2023,26.306435,-80.129265,1000,2,2,https://www.zillow.com/homedetails/356-Richmond-Cres-F-Deerfield-Beach-FL-33442/42878558_zpid/,356 Richmond Cres #F,Deerfield Beach,FL,33442,141176
zpid_42883224,5/17/2023,26.314032,-80.140114,1300,2,2,https://www.zillow.com/homedetails/465-Keswick-Cres-C-Deerfield-Beach-FL-33442/42883224_zpid/,465 Keswick Cres #C,Deerfield Beach,FL,33442,240000
zpid_42883719,5/17/2023,26.306438,-80.142914,585,1,1,https://www.zillow.com/homedetails/160-Oakridge-Cir-K-Deerfield-Beach-FL-33442/42883719_zpid/,160 Oakridge Cir #K,Deerfield Beach,FL,33442,77500
zpid_42885468,5/31/2023,26.301958,-80.19692,2110,4,4,https://www.zillow.com/homedetails/5813-Eagle-Cay-Ln-Pompano-Beach-FL-33073/42885468_zpid/,5813 Eagle Cay Ln,Pompano Beach,FL,33073,580000
zpid_42885721,5/18/2023,26.308126,-80.1923,2789,4,4,https://www.zillow.com/homedetails/6424-Mallards-Way-Coconut-Creek-FL-33073/42885721_zpid/,6424 Mallards Way,Coconut Creek,FL,33073,760000
zpid_42885841,5/18/2023,26.30493,-80.193596,2075,4,4,https://www.zillow.com/homedetails/4851-Swans-Mnr-Coconut-Creek-FL-33073/42885841_zpid/,4851 Swans Mnr,Coconut Creek,FL,33073,615000
zpid_42885953,5/17/2023,26.292824,-80.1873,2242,4,4,https://www.zillow.com/homedetails/4732-NW-51st-St-Coconut-Creek-FL-33073/42885953_zpid/,4732 NW 51st St,Coconut Creek,FL,33073,635000
zpid_42886089,5/31/2023,26.292969,-80.18905,1864,4,4,https://www.zillow.com/homedetails/4972-NW-51st-St-Coconut-Creek-FL-33073/42886089_zpid/,4972 NW 51st St,Coconut Creek,FL,33073,657500
zpid_42886949,5/17/2023,26.295261,-80.18336,2675,4,4,https://www.zillow.com/homedetails/4405-NW-52nd-St-Coconut-Creek-FL-33073/42886949_zpid/,4405 NW 52nd St,Coconut Creek,FL,33073,635000
zpid_42888204,5/17/2023,26.301327,-80.1556,1098,2,2,https://www.zillow.com/homedetails/110-Liberty-Ct-Deerfield-Beach-FL-33442/42888204_zpid/,110 Liberty Ct,Deerfield Beach,FL,33442,305000
zpid_42890825,5/31/2023,26.291098,-80.131935,1230,2,2,https://www.zillow.com/homedetails/1936-Discovery-Cir-E-Deerfield-Beach-FL-33442/42890825_zpid/,1936 Discovery Cir E,Deerfield Beach,FL,33442,361000
zpid_42899608,6/1/2023,26.269749,-80.19601,1110,2,2,https://www.zillow.com/homedetails/3316-Celebration-Ln-168-Pompano-Beach-FL-33063/42899608_zpid/,3316 Celebration Ln #168,Pompano Beach,FL,33063,312000
zpid_42902727,5/31/2023,26.265188,-80.18205,1140,2,2,https://www.zillow.com/homedetails/3050-NW-42nd-Ave-APT-C508-Coconut-Creek-FL-33066/42902727_zpid/,3050 NW 42nd Ave APT C508,Coconut Creek,FL,33066,265000
zpid_42903657,5/17/2023,26.266186,-80.17582,1300,2,2,https://www.zillow.com/homedetails/2768-Carambola-Cir-S-APT-503-Coconut-Creek-FL-33066/42903657_zpid/,2768 Carambola Cir S APT 503,Coconut Creek,FL,33066,290000
zpid_42903897,6/8/2023,26.267342,-80.179276,1120,3,3,https://www.zillow.com/homedetails/2972-Carambola-Cir-S-2047-Coconut-Creek-FL-33066/42903897_zpid/,2972 Carambola Cir S #2047,Coconut Creek,FL,33066,300000
zpid_42904196,5/30/2023,26.273552,-80.142426,1150,2,2,https://www.zillow.com/homedetails/3400-Blue-Lake-Dr-APT-201-Pompano-Beach-FL-33064/42904196_zpid/,3400 Blue Lake Dr APT 201,Pompano Beach,FL,33064,158000
zpid_42906107,6/1/2023,26.261793,-80.12989,600,1,1,https://www.zillow.com/homedetails/2525-W-Golf-Blvd-APT-218-Pompano-Beach-FL-33064/42906107_zpid/,2525 W Golf Blvd APT 218,Pompano Beach,FL,33064,80000
zpid_42907812,6/8/2023,26.2612,-80.10837,1207,3,3,https://www.zillow.com/homedetails/2400-NE-10th-Ter-Pompano-Beach-FL-33064/42907812_zpid/,2400 NE 10th Ter,Pompano Beach,FL,33064,425000
zpid_42907908,5/25/2023,26.259531,-80.109665,963,2,2,https://www.zillow.com/homedetails/950-NE-23rd-Ct-Pompano-Beach-FL-33064/42907908_zpid/,950 NE 23rd Ct,Pompano Beach,FL,33064,267500
zpid_42908022,5/23/2023,26.269903,-80.10104,1261,3,3,https://www.zillow.com/homedetails/1611-NE-31st-Ct-Pompano-Beach-FL-33064/42908022_zpid/,1611 NE 31st Ct,Pompano Beach,FL,33064,287600
zpid_42908920,5/31/2023,26.275026,-80.10773,640,1,1,https://www.zillow.com/homedetails/1150-E-Sample-Rd-APT-205-Pompano-Beach-FL-33064/42908920_zpid/,1150 E Sample Rd APT 205,Pompano Beach,FL,33064,125000
zpid_42908961,5/31/2023,26.275051,-80.10663,640,1,1,https://www.zillow.com/homedetails/1250-E-Sample-Rd-APT-210-Pompano-Beach-FL-33064/42908961_zpid/,1250 E Sample Rd APT 210,Pompano Beach,FL,33064,125000
zpid_42909033,6/1/2023,26.275093,-80.1046,640,1,1,https://www.zillow.com/homedetails/1450-E-Sample-Rd-APT-209-Pompano-Beach-FL-33064/42909033_zpid/,1450 E Sample Rd APT 209,Pompano Beach,FL,33064,125000
zpid_42909327,5/25/2023,26.246387,-80.12906,640,2,2,https://www.zillow.com/homedetails/370-NW-15th-Ct-Pompano-Beach-FL-33060/42909327_zpid/,370 NW 15th Ct,Pompano Beach,FL,33060,12800
zpid_42911999,5/30/2023,26.24985,-80.16862,1225,2,2,https://www.zillow.com/homedetails/1605-Abaco-Dr-APT-C4-Pompano-Beach-FL-33066/42911999_zpid/,1605 Abaco Dr APT C4,Pompano Beach,FL,33066,212500
zpid_42912842,5/31/2023,26.246202,-80.17327,662,1,1,https://www.zillow.com/homedetails/1205-Bahama-Bnd-APT-C2-Pompano-Beach-FL-33066/42912842_zpid/,1205 Bahama Bnd APT C2,Pompano Beach,FL,33066,133000
zpid_42913227,5/23/2023,26.245586,-80.17864,778,1,1,https://www.zillow.com/homedetails/2706-Nassau-Bnd-APT-D2-Coconut-Creek-FL-33066/42913227_zpid/,2706 Nassau Bnd APT D2,Coconut Creek,FL,33066,100000
zpid_42913578,5/25/2023,26.249344,-80.16955,1162,2,2,https://www.zillow.com/homedetails/4301-Martinique-Cir-APT-E4-Pompano-Beach-FL-33066/42913578_zpid/,4301 Martinique Cir APT E4,Pompano Beach,FL,33066,165000
zpid_42914755,5/30/2023,26.25414,-80.1793,1156,2,2,https://www.zillow.com/homedetails/2102-Lucaya-Bnd-APT-H4-Coconut-Creek-FL-33066/42914755_zpid/,2102 Lucaya Bnd APT H4,Coconut Creek,FL,33066,160000
zpid_42919175,5/23/2023,26.23327,-80.19615,738,1,1,https://www.zillow.com/homedetails/365-W-Laurel-Dr-APT-7N-Margate-FL-33063/42919175_zpid/,365 W Laurel Dr APT 7N,Margate,FL,33063,124999
zpid_42921507,5/23/2023,26.236387,-80.157265,1291,3,3,https://www.zillow.com/homedetails/2551-NW-5th-St-Pompano-Beach-FL-33069/42921507_zpid/,2551 NW 5th St,Pompano Beach,FL,33069,361000
zpid_42921841,5/19/2023,26.239925,-80.124374,848,2,2,https://www.zillow.com/homedetails/116-NW-9th-St-Pompano-Beach-FL-33060/42921841_zpid/,116 NW 9th St,Pompano Beach,FL,33060,200000
zpid_42923393,5/19/2023,26.307886,-80.086555,1378,3,3,https://www.zillow.com/homedetails/1246-SE-7th-Ct-Deerfield-Beach-FL-33441/42923393_zpid/,1246 SE 7th Ct,Deerfield Beach,FL,33441,835000
zpid_42924345,5/19/2023,26.31639,-80.085655,1228,2,2,https://www.zillow.com/homedetails/1523-E-Hillsboro-Blvd-APT-638-Deerfield-Beach-FL-33441/42924345_zpid/,1523 E Hillsboro Blvd APT 638,Deerfield Beach,FL,33441,425000
zpid_42924502,5/25/2023,26.307802,-80.07748,1315,2,2,https://www.zillow.com/homedetails/800-SE-20th-Ave-APT-705-Deerfield-Beach-FL-33441/42924502_zpid/,800 SE 20th Ave APT 705,Deerfield Beach,FL,33441,515000
zpid_42928253,5/25/2023,26.294685,-80.101685,620,2,2,https://www.zillow.com/homedetails/5164-NE-16th-Ave-Pompano-Beach-FL-33064/42928253_zpid/,5164 NE 16th Ave,Pompano Beach,FL,33064,320000
zpid_42930231,5/19/2023,26.303356,-80.096985,720,1,1,https://www.zillow.com/homedetails/1100-SE-4th-Ave-APT-10-Deerfield-Beach-FL-33441/42930231_zpid/,1100 SE 4th Ave APT 10,Deerfield Beach,FL,33441,168000
zpid_42936371,5/30/2023,26.270885,-80.09091,3712,3,3,https://www.zillow.com/homedetails/2320-NE-32nd-Ct-Lighthouse-Pt-FL-33064/42936371_zpid/,2320 NE 32nd Ct,Lighthouse Pt,FL,33064,2150000
zpid_42936672,6/1/2023,26.268179,-80.09599,1669,3,3,https://www.zillow.com/homedetails/2001-NE-30th-St-Lighthouse-Pt-FL-33064/42936672_zpid/,2001 NE 30th St,Lighthouse Pt,FL,33064,850000
zpid_42936891,6/9/2023,26.263126,-80.09198,5841,5,5,https://www.zillow.com/homedetails/2250-NE-26th-St-Pompano-Beach-FL-33064/42936891_zpid/,2250 NE 26th St,Pompano Beach,FL,33064,3300000
zpid_42936914,6/9/2023,26.26217,-80.09014,2094,3,3,https://www.zillow.com/homedetails/2370-NE-25th-St-Pompano-Beach-FL-33064/42936914_zpid/,2370 NE 25th St,Pompano Beach,FL,33064,2650000
zpid_42937188,6/9/2023,26.27502,-80.09374,795,1,1,https://www.zillow.com/homedetails/2202-NE-36th-St-APT-20-Pompano-Beach-FL-33064/42937188_zpid/,2202 NE 36th St APT 20,Pompano Beach,FL,33064,135000
zpid_42937267,6/12/2023,26.265352,-80.08288,1300,2,2,https://www.zillow.com/homedetails/2772-NE-30th-Ave-APT-5B-Pompano-Beach-FL-33064/42937267_zpid/,2772 NE 30th Ave APT 5B,Pompano Beach,FL,33064,360000
zpid_42937293,6/12/2023,26.264545,-80.083374,1250,2,2,https://www.zillow.com/homedetails/2800-NE-30th-Ave-APT-11D-Lighthouse-Pt-FL-33064/42937293_zpid/,2800 NE 30th Ave APT 11D,Lighthouse Pt,FL,33064,360000
zpid_42938417,5/19/2023,26.26102,-80.08472,1000,2,2,https://www.zillow.com/homedetails/2639-N-Riverside-Dr-APT-1106-Pompano-Beach-FL-33062/42938417_zpid/,2639 N Riverside Dr APT 1106,Pompano Beach,FL,33062,510000
zpid_42939397,6/9/2023,26.24671,-80.09863,1337,3,3,https://www.zillow.com/homedetails/1201-NE-25th-Ave-Pompano-Beach-FL-33062/42939397_zpid/,1201 NE 25th Ave,Pompano Beach,FL,33062,605000
zpid_42939821,5/30/2023,26.250322,-80.0972,912,2,2,https://www.zillow.com/homedetails/2601-NE-Forteen-Street-Cswy-232-Pompano-Beach-FL-33062/42939821_zpid/,2601 NE Forteen Street Cswy #232,Pompano Beach,FL,33062,170000
zpid_42939930,6/9/2023,26.247028,-80.08673,1360,2,2,https://www.zillow.com/homedetails/1012-N-Ocean-Blvd-APT-212-Pompano-Beach-FL-33062/42939930_zpid/,1012 N Ocean Blvd APT 212,Pompano Beach,FL,33062,465000
zpid_42940013,5/25/2023,26.247255,-80.08657,1310,2,2,https://www.zillow.com/homedetails/1012-N-Ocean-Blvd-APT-911-Pompano-Beach-FL-33062/42940013_zpid/,1012 N Ocean Blvd APT 911,Pompano Beach,FL,33062,550000
zpid_42940395,5/30/2023,26.250483,-80.093895,710,1,1,https://www.zillow.com/homedetails/2731-NE-14th-St-610-Pompano-Beach-FL-33062/42940395_zpid/,2731 NE 14th St #610,Pompano Beach,FL,33062,130000
zpid_42940761,5/30/2023,26.251493,-80.08911,1069,2,2,https://www.zillow.com/homedetails/1505-N-Riverside-Dr-APT-702-Pompano-Beach-FL-33062/42940761_zpid/,1505 N Riverside Dr APT 702,Pompano Beach,FL,33062,450000
zpid_42941174,5/19/2023,26.248718,-80.09297,835,2,2,https://www.zillow.com/homedetails/2860-NE-14th-St-105D-Pompano-Beach-FL-33062/42941174_zpid/,2860 NE 14th St #105D,Pompano Beach,FL,33062,262500
zpid_42941438,5/31/2023,26.249184,-80.08824,551,1,1,https://www.zillow.com/homedetails/3230-NE-13th-St-APT-209-Pompano-Beach-FL-33062/42941438_zpid/,3230 NE 13th St APT 209,Pompano Beach,FL,33062,300000
zpid_42941474,5/19/2023,26.249722,-80.09144,982,1,1,https://www.zillow.com/homedetails/2900-NE-14th-Street-Cswy-102-Pompano-Beach-FL-33062/42941474_zpid/,2900 NE 14th Street Cswy #102,Pompano Beach,FL,33062,252000
zpid_42941545,5/25/2023,26.249722,-80.09144,1430,2,2,https://www.zillow.com/homedetails/2900-NE-Forteen-Street-Cswy-606-Pompano-Beach-FL-33062/42941545_zpid/,2900 NE Forteen Street Cswy #606,Pompano Beach,FL,33062,465000
zpid_42942366,5/31/2023,26.242195,-80.099396,1350,2,2,https://www.zillow.com/homedetails/943-NE-24th-Ave-Pompano-Beach-FL-33062/42942366_zpid/,943 NE 24th Ave,Pompano Beach,FL,33062,665000
zpid_42942431,5/19/2023,26.24037,-80.09668,1982,2,2,https://www.zillow.com/homedetails/871-NE-27th-Ave-Pompano-Beach-FL-33062/42942431_zpid/,871 NE 27th Ave,Pompano Beach,FL,33062,625000
zpid_42942506,5/31/2023,26.238317,-80.10009,2192,4,4,https://www.zillow.com/homedetails/700-NE-23rd-Ter-Pompano-Beach-FL-33062/42942506_zpid/,700 NE 23rd Ter,Pompano Beach,FL,33062,649000
zpid_42942909,5/23/2023,26.243359,-80.08742,800,2,2,https://www.zillow.com/homedetails/710-N-Ocean-Blvd-APT-305-Pompano-Beach-FL-33062/42942909_zpid/,710 N Ocean Blvd APT 305,Pompano Beach,FL,33062,530000
zpid_42943386,5/25/2023,26.23482,-80.08977,1250,2,2,https://www.zillow.com/homedetails/133-N-Pompano-Beach-Blvd-PENTHOUSE-11-Pompano-Beach-FL-33062/42943386_zpid/,133 N Pompano Beach Blvd PENTHOUSE 11,Pompano Beach,FL,33062,610000
zpid_42944787,6/12/2023,26.239351,-80.091,690,1,1,https://www.zillow.com/homedetails/424-N-Riverside-Dr-APT-303-Pompano-Beach-FL-33062/42944787_zpid/,424 N Riverside Dr APT 303,Pompano Beach,FL,33062,243500
zpid_42946297,5/23/2023,26.237741,-80.09196,850,1,1,https://www.zillow.com/homedetails/401-N-Riverside-Dr-APT-502-Pompano-Beach-FL-33062/42946297_zpid/,401 N Riverside Dr APT 502,Pompano Beach,FL,33062,246000
zpid_42946412,6/5/2023,26.13649,-80.41565,1353,3,3,https://www.zillow.com/homedetails/1521-Salerno-Cir-Weston-FL-33327/42946412_zpid/,1521 Salerno Cir,Weston,FL,33327,636000
zpid_42946438,5/22/2023,26.13639,-80.41658,1542,3,3,https://www.zillow.com/homedetails/1523-Palermo-Dr-Weston-FL-33327/42946438_zpid/,1523 Palermo Dr,Weston,FL,33327,610000
zpid_42947014,5/26/2023,26.1347,-80.4043,1882,4,4,https://www.zillow.com/homedetails/1543-Estancia-Cir-Weston-FL-33327/42947014_zpid/,1543 Estancia Cir,Weston,FL,33327,690000
zpid_42947341,6/8/2023,26.133432,-80.40401,969,2,2,https://www.zillow.com/homedetails/1422-Coronado-Rd-4-38-Weston-FL-33327/42947341_zpid/,1422 Coronado Rd #4-38,Weston,FL,33327,400000
zpid_42947751,5/31/2023,26.176678,-80.29951,1619,3,3,https://www.zillow.com/homedetails/4130-NW-113th-Ter-Sunrise-FL-33323/42947751_zpid/,4130 NW 113th Ter,Sunrise,FL,33323,515000
zpid_42948037,5/23/2023,26.163363,-80.300545,1604,3,3,https://www.zillow.com/homedetails/11461-NW-30th-St-Sunrise-FL-33323/42948037_zpid/,11461 NW 30th St,Sunrise,FL,33323,320000
zpid_42948105,6/8/2023,26.161646,-80.29963,1600,3,3,https://www.zillow.com/homedetails/11351-NW-29th-Pl-Sunrise-FL-33323/42948105_zpid/,11351 NW 29th Pl,Sunrise,FL,33323,515000
zpid_42948166,5/26/2023,26.161034,-80.303375,1437,3,3,https://www.zillow.com/homedetails/11601-NW-29th-St-Sunrise-FL-33323/42948166_zpid/,11601 NW 29th St,Sunrise,FL,33323,461000
zpid_42948370,6/2/2023,26.16097,-80.30057,2085,4,4,https://www.zillow.com/homedetails/11410-NW-29th-St-Sunrise-FL-33323/42948370_zpid/,11410 NW 29th St,Sunrise,FL,33323,545000
zpid_42948557,6/2/2023,26.1634,-80.31222,1893,3,3,https://www.zillow.com/homedetails/12310-NW-30th-St-Sunrise-FL-33323/42948557_zpid/,12310 NW 30th St,Sunrise,FL,33323,555000
zpid_42949659,5/31/2023,26.172134,-80.305984,1877,4,4,https://www.zillow.com/homedetails/11851-NW-37th-St-Sunrise-FL-33323/42949659_zpid/,11851 NW 37th St,Sunrise,FL,33323,545000
zpid_42949736,5/26/2023,,,1340,3,3,https://www.zillow.com/homedetails/Sunrise-FL-33323/42949736_zpid/,(undisclosed Address),Sunrise,FL,33323,440000
zpid_42949978,6/9/2023,26.166779,-80.31033,1383,3,3,https://www.zillow.com/homedetails/3246-NW-122nd-Ave-Sunrise-FL-33323/42949978_zpid/,3246 NW 122nd Ave,Sunrise,FL,33323,480000
zpid_42951249,5/17/2023,26.133343,-80.32836,2272,4,4,https://www.zillow.com/homedetails/13434-NW-10th-St-Sunrise-FL-33323/42951249_zpid/,13434 NW 10th St,Sunrise,FL,33323,736000
zpid_42951758,5/18/2023,26.136908,-80.316345,1348,3,3,https://www.zillow.com/homedetails/12608-NW-12th-Ct-Sunrise-FL-33323/42951758_zpid/,12608 NW 12th Ct,Sunrise,FL,33323,505000
zpid_42952073,5/24/2023,26.134089,-80.318375,1847,4,4,https://www.zillow.com/homedetails/12741-NW-11th-Ct-Sunrise-FL-33323/42952073_zpid/,12741 NW 11th Ct,Sunrise,FL,33323,700000
zpid_42952543,5/26/2023,26.14114,-80.31902,1541,3,3,https://www.zillow.com/homedetails/12655-NW-14th-Pl-Sunrise-FL-33323/42952543_zpid/,12655 NW 14th Pl,Sunrise,FL,33323,440000
zpid_42952931,5/31/2023,26.226809,-80.213524,1195,3,3,https://www.zillow.com/homedetails/314-SW-65th-Ave-Margate-FL-33068/42952931_zpid/,314 SW 65th Ave,Margate,FL,33068,185000
zpid_42953147,5/31/2023,26.219772,-80.20984,1264,2,2,https://www.zillow.com/homedetails/6291-SW-8th-St-Pompano-Beach-FL-33068/42953147_zpid/,6291 SW 8th St,Pompano Beach,FL,33068,292000
zpid_42955927,5/26/2023,26.217031,-80.22836,1020,2,2,https://www.zillow.com/homedetails/921-SW-76th-Ave-Pompano-Beach-FL-33068/42955927_zpid/,921 SW 76th Ave,Pompano Beach,FL,33068,287500
zpid_42955928,5/30/2023,26.217031,-80.228455,1020,5,5,https://www.zillow.com/homedetails/931-SW-76th-Ave-Pompano-Beach-FL-33068/42955928_zpid/,931 SW 76th Ave,Pompano Beach,FL,33068,575000
zpid_42955952,6/9/2023,26.217686,-80.22753,1225,3,3,https://www.zillow.com/homedetails/7527-Kimberly-Blvd-North-Lauderdale-FL-33068/42955952_zpid/,7527 Kimberly Blvd,North Lauderdale,FL,33068,385000
zpid_42956526,6/8/2023,26.22517,-80.23454,1606,3,3,https://www.zillow.com/homedetails/425-SW-79th-Ter-North-Lauderdale-FL-33068/42956526_zpid/,425 SW 79th Ter,North Lauderdale,FL,33068,484000
zpid_42957035,5/25/2023,26.222834,-80.22899,1243,4,4,https://www.zillow.com/homedetails/612-SW-76th-Ter-Pompano-Beach-FL-33068/42957035_zpid/,612 SW 76th Ter,Pompano Beach,FL,33068,410000
zpid_42957455,5/25/2023,,,1710,3,3,https://www.zillow.com/homedetails/Pompano-Beach-FL-33068/42957455_zpid/,(undisclosed Address),Pompano Beach,FL,33068,424000
zpid_42957653,5/26/2023,26.213171,-80.22273,1150,3,3,https://www.zillow.com/homedetails/1219-SW-74th-Ave-Pompano-Beach-FL-33068/42957653_zpid/,1219 SW 74th Ave,Pompano Beach,FL,33068,350000
zpid_42958633,5/25/2023,26.21713,-80.234245,1108,2,2,https://www.zillow.com/homedetails/7920-Kimberly-Blvd-305-Pompano-Beach-FL-33068/42958633_zpid/,7920 Kimberly Blvd #305,Pompano Beach,FL,33068,210000
zpid_42958963,5/26/2023,26.210955,-80.235725,1350,2,2,https://www.zillow.com/homedetails/8020-Hampton-Blvd-APT-508-North-Lauderdale-FL-33068/42958963_zpid/,8020 Hampton Blvd APT 508,North Lauderdale,FL,33068,199500
zpid_42960316,6/8/2023,26.218718,-80.242775,1111,3,3,https://www.zillow.com/homedetails/7807-NW-68th-Ave-Tamarac-FL-33321/42960316_zpid/,7807 NW 68th Ave,Tamarac,FL,33321,329000
zpid_42960767,6/9/2023,,,1152,2,2,https://www.zillow.com/homedetails/North-Lauderdale-FL-33068/42960767_zpid/,(undisclosed Address),North Lauderdale,FL,33068,281000
zpid_42961034,5/31/2023,26.227262,-80.24148,1781,4,4,https://www.zillow.com/homedetails/8280-NW-66th-Ter-Tamarac-FL-33321/42961034_zpid/,8280 NW 66th Ter,Tamarac,FL,33321,540000
zpid_42965324,6/9/2023,26.222637,-80.2789,1073,2,2,https://www.zillow.com/homedetails/9604-NW-80th-Ct-Tamarac-FL-33321/42965324_zpid/,9604 NW 80th Ct,Tamarac,FL,33321,390000
zpid_42965601,5/30/2023,26.227081,-80.28227,1033,2,2,https://www.zillow.com/homedetails/8200-NW-100th-Way-Tamarac-FL-33321/42965601_zpid/,8200 NW 100th Way,Tamarac,FL,33321,330000
zpid_42965710,6/1/2023,26.226896,-80.28285,1360,2,2,https://www.zillow.com/homedetails/8110-NW-100th-Ln-Tamarac-FL-33321/42965710_zpid/,8110 NW 100th Ln,Tamarac,FL,33321,350000
zpid_42966464,6/1/2023,26.221136,-80.272354,1789,3,3,https://www.zillow.com/homedetails/8740-Azalea-Ct-APT-201-Tamarac-FL-33321/42966464_zpid/,8740 Azalea Ct APT 201,Tamarac,FL,33321,325000
zpid_42966699,5/26/2023,26.214073,-80.28423,1163,2,2,https://www.zillow.com/homedetails/9750-N-Belfort-Cir-112-Tamarac-FL-33321/42966699_zpid/,9750 N Belfort Cir #112,Tamarac,FL,33321,174000
zpid_42967155,5/26/2023,26.22036,-80.27941,981,2,2,https://www.zillow.com/homedetails/9580-Weldon-Cir-APT-K205-Tamarac-FL-33321/42967155_zpid/,9580 Weldon Cir APT K205,Tamarac,FL,33321,157500
zpid_42967257,5/26/2023,26.211014,-80.29397,2371,3,3,https://www.zillow.com/homedetails/10801-NW-71st-Ct-Tamarac-FL-33321/42967257_zpid/,10801 NW 71st Ct,Tamarac,FL,33321,535000
zpid_42967564,6/1/2023,26.224657,-80.28842,1073,2,2,https://www.zillow.com/homedetails/10216-NW-80th-Ct-Fort-Lauderdale-FL-33321/42967564_zpid/,10216 NW 80th Ct,Fort Lauderdale,FL,33321,350000
zpid_42970053,5/26/2023,26.216387,-80.29518,1325,2,2,https://www.zillow.com/homedetails/7315-S-Devon-Dr-207-Tamarac-FL-33321/42970053_zpid/,7315 S Devon Dr #207,Tamarac,FL,33321,189900
zpid_42970599,6/9/2023,26.221678,-80.29391,1215,2,2,https://www.zillow.com/homedetails/7574-Trent-Dr-312-Tamarac-FL-33321/42970599_zpid/,7574 Trent Dr #312,Tamarac,FL,33321,255000
zpid_42970728,6/9/2023,26.223587,-80.29348,1215,2,2,https://www.zillow.com/homedetails/7724-Trent-Dr-103-Tamarac-FL-33321/42970728_zpid/,7724 Trent Dr #103,Tamarac,FL,33321,210000
zpid_42972011,5/26/2023,26.206821,-80.27209,950,2,2,https://www.zillow.com/homedetails/9081-Lime-Bay-Blvd-APT-104-Tamarac-FL-33321/42972011_zpid/,9081 Lime Bay Blvd APT 104,Tamarac,FL,33321,137500
zpid_42974822,5/31/2023,26.20553,-80.25923,1072,2,2,https://www.zillow.com/homedetails/8127-Lagos-De-Campo-Blvd-M-1-Tamarac-FL-33321/42974822_zpid/,8127 Lagos De Campo Blvd #M-1,Tamarac,FL,33321,249000
zpid_42975982,6/8/2023,26.20555,-80.25606,750,1,1,https://www.zillow.com/homedetails/7831-Colony-Cir-N-APT-108-Fort-Lauderdale-FL-33321/42975982_zpid/,7831 Colony Cir N APT 108,Fort Lauderdale,FL,33321,165000
zpid_42976735,5/23/2023,26.195843,-80.24316,1587,2,2,https://www.zillow.com/homedetails/5710-NW-69th-Ave-Tamarac-FL-33321/42976735_zpid/,5710 NW 69th Ave,Tamarac,FL,33321,339000
zpid_42980041,6/9/2023,26.197592,-80.22858,1415,3,3,https://www.zillow.com/homedetails/5912-Woodland-Point-Pl-Fort-Lauderdale-FL-33319/42980041_zpid/,5912 Woodland Point Pl,Fort Lauderdale,FL,33319,410000
zpid_42980049,6/9/2023,,,1415,2,2,https://www.zillow.com/homedetails/Tamarac-FL-33319/42980049_zpid/,(undisclosed Address),Tamarac,FL,33319,360000
zpid_42988400,6/8/2023,26.185617,-80.244675,2110,3,3,https://www.zillow.com/homedetails/7175-NW-48th-Ct-Lauderhill-FL-33319/42988400_zpid/,7175 NW 48th Ct,Lauderhill,FL,33319,550000
zpid_42991608,6/7/2023,26.184486,-80.279625,2489,4,4,https://www.zillow.com/homedetails/4824-NW-96th-Ter-Sunrise-FL-33351/42991608_zpid/,4824 NW 96th Ter,Sunrise,FL,33351,595000
zpid_42991685,6/7/2023,26.182198,-80.28221,2215,3,3,https://www.zillow.com/homedetails/4668-NW-99th-Ave-Sunrise-FL-33351/42991685_zpid/,4668 NW 99th Ave,Sunrise,FL,33351,635000
zpid_42991993,6/7/2023,26.17961,-80.274994,1188,2,2,https://www.zillow.com/homedetails/9352-NW-44th-Ct-Fort-Lauderdale-FL-33351/42991993_zpid/,9352 NW 44th Ct,Fort Lauderdale,FL,33351,318000
zpid_42992413,6/9/2023,26.180393,-80.28146,1492,3,3,https://www.zillow.com/homedetails/4454-NW-99th-Ave-Sunrise-FL-33351/42992413_zpid/,4454 NW 99th Ave,Sunrise,FL,33351,530000
zpid_42993122,6/2/2023,26.166147,-80.28851,1646,3,3,https://www.zillow.com/homedetails/3253-NW-104th-Ave-Sunrise-FL-33351/42993122_zpid/,3253 NW 104th Ave,Sunrise,FL,33351,380000
zpid_42993791,6/7/2023,26.178635,-80.28623,1684,3,3,https://www.zillow.com/homedetails/4380-NW-103rd-Ave-Fort-Lauderdale-FL-33351/42993791_zpid/,4380 NW 103rd Ave,Fort Lauderdale,FL,33351,512000
zpid_42994736,6/8/2023,26.173779,-80.288864,760,2,2,https://www.zillow.com/homedetails/10027-Winding-Lake-Rd-APT-204-Sunrise-FL-33351/42994736_zpid/,10027 Winding Lake Rd APT 204,Sunrise,FL,33351,235000
zpid_42997645,5/24/2023,26.171469,-80.26757,989,3,3,https://www.zillow.com/homedetails/3700-N-Pine-Island-Rd-203-Fort-Lauderdale-FL-33351/42997645_zpid/,3700 N Pine Island Rd #203,Fort Lauderdale,FL,33351,185000
zpid_42997995,6/7/2023,26.176523,-80.254166,944,2,2,https://www.zillow.com/homedetails/4235-N-University-Dr-APT-205-Fort-Lauderdale-FL-33351/42997995_zpid/,4235 N University Dr APT 205,Fort Lauderdale,FL,33351,200000
zpid_42998499,6/2/2023,26.167519,-80.24551,1076,2,2,https://www.zillow.com/homedetails/7418-NW-33rd-St-Lauderhill-FL-33319/42998499_zpid/,7418 NW 33rd St,Lauderhill,FL,33319,300000
zpid_42998940,6/2/2023,26.167963,-80.241104,1394,2,2,https://www.zillow.com/homedetails/3047-La-Mirage-Dr-Lauderhill-FL-33319/42998940_zpid/,3047 La Mirage Dr,Lauderhill,FL,33319,335000
zpid_42999461,6/2/2023,26.173058,-80.245285,1060,2,2,https://www.zillow.com/homedetails/3821-Environ-Blvd-APT-209-Lauderhill-FL-33319/42999461_zpid/,3821 Environ Blvd APT 209,Lauderhill,FL,33319,120000
zpid_42999709,6/2/2023,26.171808,-80.242905,780,1,1,https://www.zillow.com/homedetails/3771-Environ-Blvd-APT-346-Fort-Lauderdale-FL-33319/42999709_zpid/,3771 Environ Blvd APT 346,Fort Lauderdale,FL,33319,97000
zpid_43001137,5/24/2023,26.17673,-80.23978,1032,2,2,https://www.zillow.com/homedetails/4200-Inverrary-Blvd-APT-3804-Fort-Lauderdale-FL-33319/43001137_zpid/,4200 Inverrary Blvd APT 3804,Fort Lauderdale,FL,33319,122000
zpid_43001642,6/8/2023,26.168848,-80.22492,1515,3,3,https://www.zillow.com/homedetails/5626-Hammock-Ln-119-Fort-Lauderdale-FL-33319/43001642_zpid/,5626 Hammock Ln #119,Fort Lauderdale,FL,33319,365000
zpid_43002284,5/24/2023,26.176693,-80.23414,1189,2,2,https://www.zillow.com/homedetails/6301-N-Falls-Circle-Dr-APT-412-Fort-Lauderdale-FL-33319/43002284_zpid/,6301 N Falls Circle Dr APT 412,Fort Lauderdale,FL,33319,130000
zpid_43002576,6/7/2023,,,1130,2,2,https://www.zillow.com/homedetails/Lauderhill-FL-33319/43002576_zpid/,(undisclosed Address),Lauderhill,FL,33319,183500
zpid_43003130,6/2/2023,26.178362,-80.228806,1100,2,2,https://www.zillow.com/homedetails/5860-NW-44th-St-APT-312-Lauderhill-FL-33319/43003130_zpid/,5860 NW 44th St APT 312,Lauderhill,FL,33319,180000
zpid_43004423,6/2/2023,26.17694,-80.22921,1016,2,2,https://www.zillow.com/homedetails/4164-Inverrary-Dr-APT-1015-Fort-Lauderdale-FL-33319/43004423_zpid/,4164 Inverrary Dr APT 1015,Fort Lauderdale,FL,33319,138000
zpid_43006365,5/24/2023,26.179026,-80.21515,1464,2,2,https://www.zillow.com/homedetails/4900-NW-43rd-Ct-Fort-Lauderdale-FL-33319/43006365_zpid/,4900 NW 43rd Ct,Fort Lauderdale,FL,33319,225000
zpid_43009661,6/12/2023,26.167673,-80.21236,1002,2,2,https://www.zillow.com/homedetails/3341-NW-47th-Ter-APT-404-Lauderdale-Lakes-FL-33319/43009661_zpid/,3341 NW 47th Ter APT 404,Lauderdale Lakes,FL,33319,160000
zpid_43010101,5/18/2023,,,1002,2,2,https://www.zillow.com/homedetails/Fort-Lauderdale-FL-33319/43010101_zpid/,(undisclosed Address),Fort Lauderdale,FL,33319,172500
zpid_43010438,5/17/2023,26.16247,-80.20818,1324,3,3,https://www.zillow.com/homedetails/2930-NW-44th-Ter-Fort-Lauderdale-FL-33313/43010438_zpid/,2930 NW 44th Ter,Fort Lauderdale,FL,33313,370000
zpid_43012072,5/17/2023,26.15553,-80.216194,994,1,1,https://www.zillow.com/homedetails/2291-NW-48th-Ter-APT-115-Lauderhill-FL-33313/43012072_zpid/,2291 NW 48th Ter APT 115,Lauderhill,FL,33313,123000
zpid_43012097,5/24/2023,26.155241,-80.21365,1053,2,2,https://www.zillow.com/homedetails/2271-NW-47th-Ter-APT-107-Fort-Lauderdale-FL-33313/43012097_zpid/,2271 NW 47th Ter APT 107,Fort Lauderdale,FL,33313,103000
zpid_43012162,5/18/2023,26.1603,-80.214584,1560,3,3,https://www.zillow.com/homedetails/2727-NW-47th-Ln-3001-Lauderdale-Lakes-FL-33313/43012162_zpid/,2727 NW 47th Ln #3001,Lauderdale Lakes,FL,33313,197000
zpid_43012528,6/2/2023,26.153175,-80.21393,1185,2,2,https://www.zillow.com/homedetails/4751-NW-21st-St-APT-218-Fort-Lauderdale-FL-33313/43012528_zpid/,4751 NW 21st St APT 218,Fort Lauderdale,FL,33313,140000
zpid_43012779,5/26/2023,26.161446,-80.21439,705,1,1,https://www.zillow.com/homedetails/2900-NW-48th-Ter-APT-411-Fort-Lauderdale-FL-33313/43012779_zpid/,2900 NW 48th Ter APT 411,Fort Lauderdale,FL,33313,99900
zpid_43013488,5/24/2023,26.162182,-80.21716,705,1,1,https://www.zillow.com/homedetails/4898-NW-29th-Ct-APT-212-Fort-Lauderdale-FL-33313/43013488_zpid/,4898 NW 29th Ct APT 212,Fort Lauderdale,FL,33313,95000
zpid_43013798,6/7/2023,26.155714,-80.20446,975,2,2,https://www.zillow.com/homedetails/2301-NW-41st-Ave-APT-306-Lauderhill-FL-33313/43013798_zpid/,2301 NW 41st Ave APT 306,Lauderhill,FL,33313,113000
zpid_43013968,5/26/2023,,,960,2,2,https://www.zillow.com/homedetails/Lauderdale-Lakes-FL-33313/43013968_zpid/,(undisclosed Address),Lauderdale Lakes,FL,33313,115000
zpid_43014657,5/17/2023,26.15702,-80.21595,850,1,1,https://www.zillow.com/homedetails/4848-NW-24th-Ct-APT-127-Fort-Lauderdale-FL-33313/43014657_zpid/,4848 NW 24th Ct APT 127,Fort Lauderdale,FL,33313,115000
zpid_43016231,5/26/2023,26.159237,-80.22029,940,2,2,https://www.zillow.com/homedetails/2542-NW-52nd-Ave-19B-Fort-Lauderdale-FL-33313/43016231_zpid/,2542 NW 52nd Ave #19B,Fort Lauderdale,FL,33313,165000
zpid_43016293,5/26/2023,26.160975,-80.221466,1020,2,2,https://www.zillow.com/homedetails/5307-NW-27th-St-6D-Fort-Lauderdale-FL-33313/43016293_zpid/,5307 NW 27th St #6D,Fort Lauderdale,FL,33313,171000
zpid_43016890,5/31/2023,26.15607,-80.22021,1100,2,2,https://www.zillow.com/homedetails/2436-NW-52nd-Ave-2436-Fort-Lauderdale-FL-33313/43016890_zpid/,2436 NW 52nd Ave #2436,Fort Lauderdale,FL,33313,97500
zpid_43017479,5/18/2023,26.163515,-80.22077,1070,2,2,https://www.zillow.com/homedetails/2924-NW-55th-Ave-APT-1D-Fort-Lauderdale-FL-33313/43017479_zpid/,2924 NW 55th Ave APT 1D,Fort Lauderdale,FL,33313,167000
zpid_43017704,5/31/2023,26.157629,-80.22858,745,1,1,https://www.zillow.com/homedetails/2521-NW-56th-Ave-426-Lauderhill-FL-33313/43017704_zpid/,2521 NW 56th Ave #426,Lauderhill,FL,33313,145000
zpid_43018716,5/26/2023,26.162024,-80.23887,1060,3,3,https://www.zillow.com/homedetails/6761-NW-29th-St-Sunrise-FL-33313/43018716_zpid/,6761 NW 29th St,Sunrise,FL,33313,405000
zpid_43019175,6/2/2023,26.161978,-80.24105,1341,3,3,https://www.zillow.com/homedetails/6864-NW-29th-St-Sunrise-FL-33313/43019175_zpid/,6864 NW 29th St,Sunrise,FL,33313,325000
zpid_43019580,5/17/2023,26.153608,-80.244576,1660,3,3,https://www.zillow.com/homedetails/2191-NW-73rd-Ave-Sunrise-FL-33313/43019580_zpid/,2191 NW 73rd Ave,Sunrise,FL,33313,470000
zpid_43019908,5/26/2023,26.162842,-80.25034,850,2,2,https://www.zillow.com/homedetails/3091-Sunrise-Lakes-East-Dr-102-Sunrise-FL-33322/43019908_zpid/,3091 Sunrise Lakes East Dr #102,Sunrise,FL,33322,130000
zpid_43022078,5/18/2023,26.158773,-80.25608,640,1,1,https://www.zillow.com/homedetails/2700-Sunrise-Lakes-Dr-W-APT-305-Fort-Lauderdale-FL-33322/43022078_zpid/,2700 Sunrise Lakes Dr W APT 305,Fort Lauderdale,FL,33322,124500
zpid_43024262,6/2/2023,26.154507,-80.27811,1819,4,4,https://www.zillow.com/homedetails/9611-NW-24th-Ct-Fort-Lauderdale-FL-33322/43024262_zpid/,9611 NW 24th Ct,Fort Lauderdale,FL,33322,502000
zpid_43024825,6/2/2023,26.155752,-80.2699,1247,2,2,https://www.zillow.com/homedetails/9000-NW-25th-St-Sunrise-FL-33322/43024825_zpid/,9000 NW 25th St,Sunrise,FL,33322,390000
zpid_43026067,5/31/2023,26.15927,-80.28165,850,2,2,https://www.zillow.com/homedetails/9900-Sunrise-Lakes-Blvd-APT-301-Sunrise-FL-33322/43026067_zpid/,9900 Sunrise Lakes Blvd APT 301,Sunrise,FL,33322,174000
zpid_43026307,5/24/2023,26.16222,-80.26879,850,2,2,https://www.zillow.com/homedetails/8881-Sunrise-Lakes-Blvd-APT-201-Fort-Lauderdale-FL-33322/43026307_zpid/,8881 Sunrise Lakes Blvd APT 201,Fort Lauderdale,FL,33322,135000
zpid_43027219,5/31/2023,26.16046,-80.27434,750,1,1,https://www.zillow.com/homedetails/9350-Sunrise-Lakes-Blvd-APT-106-Sunrise-FL-33322/43027219_zpid/,9350 Sunrise Lakes Blvd APT 106,Sunrise,FL,33322,127000
zpid_43027785,6/12/2023,26.159346,-80.27695,850,2,2,https://www.zillow.com/homedetails/9420-Sunrise-Lakes-Blvd-APT-111-Sunrise-FL-33322/43027785_zpid/,9420 Sunrise Lakes Blvd APT 111,Sunrise,FL,33322,138000
zpid_43029604,5/18/2023,26.153341,-80.29338,1430,3,3,https://www.zillow.com/homedetails/10814-NW-23rd-Ct-Sunrise-FL-33322/43029604_zpid/,10814 NW 23rd Ct,Sunrise,FL,33322,470000
zpid_43030847,6/12/2023,26.16319,-80.28646,850,2,2,https://www.zillow.com/homedetails/10300-NW-30th-Ct-APT-212-Sunrise-FL-33322/43030847_zpid/,10300 NW 30th Ct APT 212,Sunrise,FL,33322,175000
zpid_43031683,5/19/2023,26.16256,-80.28381,1356,2,2,https://www.zillow.com/homedetails/2981-N-Nob-Hill-Rd-APT-306-Sunrise-FL-33322/43031683_zpid/,2981 N Nob Hill Rd APT 306,Sunrise,FL,33322,242000
zpid_43031755,6/12/2023,26.164211,-80.285164,1367,2,2,https://www.zillow.com/homedetails/10400-NW-30th-Ct-APT-304-Sunrise-FL-33322/43031755_zpid/,10400 NW 30th Ct APT 304,Sunrise,FL,33322,240000
zpid_43031831,6/2/2023,26.159859,-80.28912,815,2,2,https://www.zillow.com/homedetails/2711-NW-104th-Ave-APT-209-Sunrise-FL-33322/43031831_zpid/,2711 NW 104th Ave APT 209,Sunrise,FL,33322,150000
zpid_43032909,5/22/2023,26.149197,-80.28764,2502,4,4,https://www.zillow.com/homedetails/10360-NW-18th-Dr-Plantation-FL-33322/43032909_zpid/,10360 NW 18th Dr,Plantation,FL,33322,730000
zpid_43033133,5/22/2023,26.141895,-80.289536,2438,4,4,https://www.zillow.com/homedetails/1449-NW-105th-Ave-Plantation-FL-33322/43033133_zpid/,1449 NW 105th Ave,Plantation,FL,33322,650000
zpid_43033560,5/19/2023,26.137684,-80.2887,2035,4,4,https://www.zillow.com/homedetails/10371-NW-11th-St-Plantation-FL-33322/43033560_zpid/,10371 NW 11th St,Plantation,FL,33322,657500
zpid_43033624,6/12/2023,26.148584,-80.29683,2895,4,4,https://www.zillow.com/homedetails/1857-NW-111th-Ave-Plantation-FL-33322/43033624_zpid/,1857 NW 111th Ave,Plantation,FL,33322,667000
zpid_43034147,5/31/2023,26.14256,-80.291985,1120,3,3,https://www.zillow.com/homedetails/10700-NW-14th-St-APT-140-Plantation-FL-33322/43034147_zpid/,10700 NW 14th St APT 140,Plantation,FL,33322,305000
zpid_43035033,5/31/2023,26.143631,-80.26891,1398,2,2,https://www.zillow.com/homedetails/9011-NW-15th-Pl-Plantation-FL-33322/43035033_zpid/,9011 NW 15th Pl,Plantation,FL,33322,305000
zpid_43035077,5/18/2023,26.137318,-80.270294,1560,2,2,https://www.zillow.com/homedetails/1041-NW-90th-Way-Plantation-FL-33322/43035077_zpid/,1041 NW 90th Way,Plantation,FL,33322,287500
zpid_43037879,5/19/2023,26.139565,-80.26344,1114,2,2,https://www.zillow.com/homedetails/8537-NW-12th-St-A183-Plantation-FL-33322/43037879_zpid/,8537 NW 12th St #A183,Plantation,FL,33322,247250
zpid_43038426,5/31/2023,26.138292,-80.24358,1724,3,3,https://www.zillow.com/homedetails/1111-NW-70th-Ter-Plantation-FL-33313/43038426_zpid/,1111 NW 70th Ter,Plantation,FL,33313,515000
zpid_43038849,5/17/2023,26.14882,-80.247375,969,1,1,https://www.zillow.com/homedetails/7221-W-Sunrise-Blvd-7221D-Fort-Lauderdale-FL-33313/43038849_zpid/,7221 W Sunrise Blvd #7221D,Fort Lauderdale,FL,33313,150000
zpid_43039241,5/25/2023,26.14698,-80.24768,1080,2,2,https://www.zillow.com/homedetails/7300-NW-17th-St-APT-314-Fort-Lauderdale-FL-33313/43039241_zpid/,7300 NW 17th St APT 314,Fort Lauderdale,FL,33313,198000
zpid_43039461,5/16/2023,26.14846,-80.24828,969,2,2,https://www.zillow.com/homedetails/7403-W-Sunrise-Blvd-APT-A1-Plantation-FL-33313/43039461_zpid/,7403 W Sunrise Blvd APT A1,Plantation,FL,33313,165000
zpid_43039591,5/16/2023,26.14697,-80.24879,952,2,2,https://www.zillow.com/homedetails/7500-NW-17th-St-APT-309-Plantation-FL-33313/43039591_zpid/,7500 NW 17th St APT 309,Plantation,FL,33313,191000
zpid_43041021,6/7/2023,26.14244,-80.22697,813,2,2,https://www.zillow.com/homedetails/1478-NW-58th-Ter-Fort-Lauderdale-FL-33313/43041021_zpid/,1478 NW 58th Ter,Fort Lauderdale,FL,33313,237000
zpid_43041935,5/16/2023,26.146278,-80.225716,2050,3,3,https://www.zillow.com/homedetails/1726-NW-57th-Ter-10-Lauderhill-FL-33313/43041935_zpid/,1726 NW 57th Ter #10,Lauderhill,FL,33313,242000
zpid_43044036,5/19/2023,26.142046,-80.20745,730,1,1,https://www.zillow.com/homedetails/1281-NW-43rd-Ave-APT-203-Lauderhill-FL-33313/43044036_zpid/,1281 NW 43rd Ave APT 203,Lauderhill,FL,33313,75000
zpid_43045067,5/31/2023,26.141287,-80.20748,950,2,2,https://www.zillow.com/homedetails/4310-NW-12th-Ct-APT-110-Fort-Lauderdale-FL-33313/43045067_zpid/,4310 NW 12th Ct APT 110,Fort Lauderdale,FL,33313,90000
zpid_43046871,6/1/2023,26.228842,-80.118774,2200,3,3,https://www.zillow.com/homedetails/229-SE-3rd-Ter-Pompano-Beach-FL-33060/43046871_zpid/,229 SE 3rd Ter,Pompano Beach,FL,33060,1030000
zpid_43047534,5/30/2023,26.21635,-80.121735,1744,2,2,https://www.zillow.com/homedetails/70-SE-10th-St-Pompano-Beach-FL-33060/43047534_zpid/,70 SE 10th St,Pompano Beach,FL,33060,685000
zpid_43047934,5/24/2023,26.229942,-80.122826,936,2,2,https://www.zillow.com/homedetails/140-S-Cypress-Rd-APT-123-Pompano-Beach-FL-33060/43047934_zpid/,140 S Cypress Rd APT 123,Pompano Beach,FL,33060,235000
zpid_43048249,5/30/2023,26.223286,-80.10716,1172,2,2,https://www.zillow.com/homedetails/1100-SE-5th-Ct-APT-83-Pompano-Beach-FL-33060/43048249_zpid/,1100 SE 5th Ct APT 83,Pompano Beach,FL,33060,590000
zpid_43048518,6/8/2023,26.225784,-80.12277,930,2,2,https://www.zillow.com/homedetails/330-S-Cypress-Rd-APT-624-Pompano-Beach-FL-33060/43048518_zpid/,330 S Cypress Rd APT 624,Pompano Beach,FL,33060,176500
zpid_43049583,5/30/2023,26.227648,-80.12551,931,2,2,https://www.zillow.com/homedetails/197-SW-3rd-St-Pompano-Beach-FL-33060/43049583_zpid/,197 SW 3rd St,Pompano Beach,FL,33060,239000
zpid_43049658,6/2/2023,26.22847,-80.124954,675,1,1,https://www.zillow.com/homedetails/253-S-Cypress-Rd-APT-205-Pompano-Beach-FL-33060/43049658_zpid/,253 S Cypress Rd APT 205,Pompano Beach,FL,33060,143000
zpid_43049841,6/2/2023,26.229057,-80.12376,670,1,1,https://www.zillow.com/homedetails/259-S-Cypress-Rd-APT-545-Pompano-Beach-FL-33060/43049841_zpid/,259 S Cypress Rd APT 545,Pompano Beach,FL,33060,188000
zpid_43051028,6/1/2023,26.216784,-80.147766,770,2,2,https://www.zillow.com/homedetails/2104-S-Cypress-Bend-Dr-APT-504-Pompano-Beach-FL-33069/43051028_zpid/,2104 S Cypress Bend Dr APT 504,Pompano Beach,FL,33069,220000
zpid_43051514,6/8/2023,26.216053,-80.150085,1330,2,2,https://www.zillow.com/homedetails/2213-Cypress-Island-Dr-APT-206-Pompano-Beach-FL-33069/43051514_zpid/,2213 Cypress Island Dr APT 206,Pompano Beach,FL,33069,272000
zpid_43051874,6/8/2023,26.21756,-80.15432,1222,2,2,https://www.zillow.com/homedetails/2240-N-Cypress-Bend-Dr-APT-401-Pompano-Beach-FL-33069/43051874_zpid/,2240 N Cypress Bend Dr APT 401,Pompano Beach,FL,33069,286000
zpid_43054813,5/30/2023,26.227892,-80.16851,1054,2,2,https://www.zillow.com/homedetails/3080-N-Course-Dr-APT-609-Pompano-Beach-FL-33069/43054813_zpid/,3080 N Course Dr APT 609,Pompano Beach,FL,33069,263000
zpid_43056300,6/6/2023,26.223953,-80.178215,1500,3,3,https://www.zillow.com/homedetails/3960-Oaks-Clubhouse-Dr-APT-511-Pompano-Beach-FL-33069/43056300_zpid/,3960 Oaks Clubhouse Dr APT 511,Pompano Beach,FL,33069,299999
zpid_43056316,6/8/2023,26.222197,-80.17976,1500,3,3,https://www.zillow.com/homedetails/3980-Oaks-Clubhouse-Dr-APT-204-Pompano-Beach-FL-33069/43056316_zpid/,3980 Oaks Clubhouse Dr APT 204,Pompano Beach,FL,33069,360000
zpid_43056996,6/6/2023,26.217413,-80.172775,1710,3,3,https://www.zillow.com/homedetails/4020-W-Palm-Aire-Dr-APT-303-Pompano-Beach-FL-33069/43056996_zpid/,4020 W Palm Aire Dr APT 303,Pompano Beach,FL,33069,385000
zpid_43057400,6/2/2023,26.21378,-80.18721,1620,3,3,https://www.zillow.com/homedetails/933-Cypress-Grove-Dr-APT-206-Pompano-Beach-FL-33069/43057400_zpid/,933 Cypress Grove Dr APT 206,Pompano Beach,FL,33069,330000
zpid_43065813,5/26/2023,26.207714,-80.11265,1679,3,3,https://www.zillow.com/homedetails/6430-NE-21st-Rd-Fort-Lauderdale-FL-33308/43065813_zpid/,6430 NE 21st Rd,Fort Lauderdale,FL,33308,200000
zpid_43066488,5/26/2023,26.210335,-80.11122,875,2,2,https://www.zillow.com/homedetails/2270-NE-68th-St-APT-1911-Fort-Lauderdale-FL-33308/43066488_zpid/,2270 NE 68th St APT 1911,Fort Lauderdale,FL,33308,160000
zpid_43066603,5/26/2023,26.200718,-80.111015,700,1,1,https://www.zillow.com/homedetails/2210-NE-56th-Pl-APT-106-Fort-Lauderdale-FL-33308/43066603_zpid/,2210 NE 56th Pl APT 106,Fort Lauderdale,FL,33308,175000
zpid_43068260,5/26/2023,26.205462,-80.1223,650,1,1,https://www.zillow.com/homedetails/6260-NE-18th-Ave-809-Fort-Lauderdale-FL-33308/43068260_zpid/,6260 NE 18th Ave #809,Fort Lauderdale,FL,33308,111970
zpid_43069832,6/7/2023,26.187792,-80.106544,1550,2,2,https://www.zillow.com/homedetails/3001-NE-47th-Ct-APT-216-Fort-Lauderdale-FL-33308/43069832_zpid/,3001 NE 47th Ct APT 216,Fort Lauderdale,FL,33308,422000
zpid_43072456,5/25/2023,26.186367,-80.140976,988,2,2,https://www.zillow.com/homedetails/4790-NE-4th-Ave-Oakland-Park-FL-33334/43072456_zpid/,4790 NE 4th Ave,Oakland Park,FL,33334,429000
zpid_43074649,5/25/2023,26.190619,-80.18122,1393,2,2,https://www.zillow.com/homedetails/2818-NW-52nd-Ct-Fort-Lauderdale-FL-33309/43074649_zpid/,2818 NW 52nd Ct,Fort Lauderdale,FL,33309,375000
zpid_43076814,5/26/2023,26.166664,-80.195244,1879,4,4,https://www.zillow.com/homedetails/3527-NW-32nd-St-Fort-Lauderdale-FL-33309/43076814_zpid/,3527 NW 32nd St,Fort Lauderdale,FL,33309,455000
zpid_43077465,6/7/2023,26.179096,-80.19479,1611,3,3,https://www.zillow.com/homedetails/4301-NW-34th-Way-Fort-Lauderdale-FL-33309/43077465_zpid/,4301 NW 34th Way,Fort Lauderdale,FL,33309,447500
zpid_43078126,5/26/2023,26.17798,-80.17137,920,2,2,https://www.zillow.com/homedetails/110-Lake-Emerald-Dr-APT-203-Oakland-Park-FL-33309/43078126_zpid/,110 Lake Emerald Dr APT 203,Oakland Park,FL,33309,235000
zpid_43078379,5/26/2023,26.167315,-80.183205,1012,2,2,https://www.zillow.com/homedetails/2840-S-Oakland-Forest-Dr-APT-2906-Oakland-Park-FL-33309/43078379_zpid/,2840 S Oakland Forest Dr APT 2906,Oakland Park,FL,33309,349778
zpid_43078564,5/31/2023,26.167236,-80.18074,1061,2,2,https://www.zillow.com/homedetails/2780-S-Oakland-Forest-Dr-APT-1803-Fort-Lauderdale-FL-33309/43078564_zpid/,2780 S Oakland Forest Dr APT 1803,Fort Lauderdale,FL,33309,245000
zpid_43078851,5/26/2023,26.173937,-80.17781,920,2,2,https://www.zillow.com/homedetails/115-Lake-Emerald-Dr-APT-110-Oakland-Park-FL-33309/43078851_zpid/,115 Lake Emerald Dr APT 110,Oakland Park,FL,33309,213000
zpid_43079902,5/31/2023,26.167145,-80.17071,1625,3,3,https://www.zillow.com/homedetails/2030-NW-32nd-Ct-Oakland-Park-FL-33309/43079902_zpid/,2030 NW 32nd Ct,Oakland Park,FL,33309,560000
zpid_43079952,5/26/2023,26.176702,-80.1688,1804,3,3,https://www.zillow.com/homedetails/3997-NW-19th-Ave-Oakland-Park-FL-33309/43079952_zpid/,3997 NW 19th Ave,Oakland Park,FL,33309,595000
zpid_43080814,5/31/2023,26.170803,-80.16543,975,2,2,https://www.zillow.com/homedetails/112-Royal-Park-Dr-APT-3G-Fort-Lauderdale-FL-33309/43080814_zpid/,112 Royal Park Dr APT 3G,Fort Lauderdale,FL,33309,190000
zpid_43081397,5/31/2023,26.174461,-80.149,1270,3,3,https://www.zillow.com/homedetails/260-NW-39th-St-Oakland-Park-FL-33309/43081397_zpid/,260 NW 39th St,Oakland Park,FL,33309,535000
zpid_43083650,6/5/2023,26.176348,-80.127,1274,3,3,https://www.zillow.com/homedetails/1530-NE-40th-Ct-Oakland-Park-FL-33334/43083650_zpid/,1530 NE 40th Ct,Oakland Park,FL,33334,800000
zpid_43084053,5/31/2023,26.173012,-80.12108,1590,2,2,https://www.zillow.com/homedetails/3652-NE-19th-Ave-Oakland-Park-FL-33308/43084053_zpid/,3652 NE 19th Ave,Oakland Park,FL,33308,680000
zpid_43084146,5/31/2023,26.171974,-80.12181,1786,3,3,https://www.zillow.com/homedetails/3548-NE-18th-Ave-Oakland-Park-FL-33334/43084146_zpid/,3548 NE 18th Ave,Oakland Park,FL,33334,1090000
zpid_43084216,5/31/2023,26.172342,-80.10679,4704,5,5,https://www.zillow.com/homedetails/2816-NE-36th-St-Fort-Lauderdale-FL-33308/43084216_zpid/,2816 NE 36th St,Fort Lauderdale,FL,33308,4800000
zpid_43084749,6/5/2023,26.181192,-80.1043,4690,5,5,https://www.zillow.com/homedetails/3091-NE-42nd-St-Fort-Lauderdale-FL-33308/43084749_zpid/,3091 NE 42nd St,Fort Lauderdale,FL,33308,3790000
zpid_43085974,5/31/2023,26.159037,-80.11134,1635,2,2,https://www.zillow.com/homedetails/2708-NE-25th-Pl-Fort-Lauderdale-FL-33305/43085974_zpid/,2708 NE 25th Pl,Fort Lauderdale,FL,33305,980000
zpid_43086002,5/19/2023,26.158485,-80.11177,3250,4,4,https://www.zillow.com/homedetails/2517-NE-27th-Ave-Fort-Lauderdale-FL-33305/43086002_zpid/,2517 NE 27th Ave,Fort Lauderdale,FL,33305,2500000
zpid_43086620,5/31/2023,26.163998,-80.11089,1708,3,3,https://www.zillow.com/homedetails/2733-NE-28th-St-Fort-Lauderdale-FL-33306/43086620_zpid/,2733 NE 28th St,Fort Lauderdale,FL,33306,960000
